{"type": "FeatureCollection", "features": [{"id": "0", "type": "Feature", "properties": {"AdminName": "\u5b9c\u862d\u7e23\u653f\u5e9c\u6c34\u5229\u8cc7\u6e90\u8655\u6c34\u5229\u884c\u653f\u79d1", "IoWPhysicalQuantityId": "6d99b98c-9ac6-4ed7-b896-575a6e9f9ecf", "IoWStationId": "27fada6c-de68-4179-b61f-5a5ef7473194", "Name": "\u7f8e\u798f\u53f3\u5cb8\u6392\u6c34\u95801\u5167\u6c34\u4f4d", "StationId": "3764200RV20050", "TownCode": 10002010, "type": "waterlevel"}, "geometry": {"type": "Point", "coordinates": [121.768654, 24.736437]}}, {"id": "1", "type": "Feature", "properties": {"AdminName": "\u6c34\u5229\u7f72\u6c34\u5229\u7f72", "IoWPhysicalQuantityId": "e7bf9ad4-f0db-42f1-93ce-99df47661e0f", "IoWStationId": "45b6a4c3-8127-4f02-9565-a0ba1eda9bae", "Name": "\u897f\u9580\u6a4b", "StationId": "A130600WT256H803", "TownCode": 10002010, "type": "waterlevel"}, "geometry": {"type": "Point", "coordinates": [121.74438, 24.75795]}}, {"id": "2", "type": "Feature", "properties": {"AdminName": "\u5b9c\u862d\u7e23\u653f\u5e9c\u6c34\u5229\u8cc7\u6e90\u8655\u6c34\u5229\u884c\u653f\u79d1", "IoWPhysicalQuantityId": "88c535cd-e973-40e1-86db-133427432c5f", "IoWStationId": "51a1412b-b3cf-4ab2-aa67-2126e575dec4", "Name": "\u7f8e\u798f\u53f3\u5cb8\u6392\u6c34\u95802\u5167\u6c34\u4f4d", "StationId": "3764200RV20062", "TownCode": 10002010, "type": "waterlevel"}, "geometry": {"type": "Point", "coordinates": [121.77554, 24.735573]}}, {"id": "3", "type": "Feature", "properties": {"AdminName": "\u7d93\u6fdf\u90e8\u6c34\u5229\u7f72\u6c34\u6587\u6280\u8853\u7d44", "IoWPhysicalQuantityId": "ea9876f3-ed45-4ab2-ba39-67084737edc7", "IoWStationId": "532419ec-3421-4a19-857c-006bc71262ef", "Name": "\u897f\u9580\u6a4b-NB", "StationId": "A130600RV2560019", "TownCode": 10002010, "type": "waterlevel"}, "geometry": {"type": "Point", "coordinates": [121.74438, 24.75795]}}, {"id": "4", "type": "Feature", "properties": {"AdminName": "\u5b9c\u862d\u7e23\u653f\u5e9c\u6c34\u5229\u8cc7\u6e90\u8655\u6c34\u5229\u884c\u653f\u79d1", "IoWPhysicalQuantityId": "e1131c50-0aa3-470b-b38b-7fbc6acbd04a", "IoWStationId": "5ef6777f-8321-4ad4-930b-64976f2b7fe0", "Name": "V\u5206\u6d2a\u9053\u51fa\u53e3", "StationId": "3764200RV20023", "TownCode": 10002010, "type": "waterlevel"}, "geometry": {"type": "Point", "coordinates": [121.75585, 24.742844]}}, {"id": "5", "type": "Feature", "properties": {"AdminName": "\u5b9c\u862d\u7e23\u653f\u5e9c\u6c34\u5229\u8cc7\u6e90\u8655\u6c34\u5229\u884c\u653f\u79d1", "IoWPhysicalQuantityId": "eccb37bc-39cb-43d9-8ec3-00ea2015a574", "IoWStationId": "657e5a95-dd4c-4b74-a869-43e99ed01643", "Name": "\u7f8e\u798f\u53f3\u5cb8\u6392\u6c34\u95801\u5916\u6c34\u4f4d", "StationId": "3764200RV20043", "TownCode": 10002010, "type": "waterlevel"}, "geometry": {"type": "Point", "coordinates": [121.76869, 24.736517]}}, {"id": "6", "type": "Feature", "properties": {"AdminName": "\u6c34\u5229\u7f72\u6c34\u5229\u7f72", "IoWPhysicalQuantityId": "33e0fcf7-4e5d-4765-b195-824be6e2c787", "IoWStationId": "ae854b0c-524c-4572-8542-8e90e089ead5", "Name": "\u862d\u967d\u5927\u6a4b", "StationId": "A130600WT256H794", "TownCode": 10002010, "type": "waterlevel"}, "geometry": {"type": "Point", "coordinates": [121.77188, 24.716074]}}, {"id": "7", "type": "Feature", "properties": {"AdminName": "\u5b9c\u862d\u7e23\u653f\u5e9c\u6c34\u5229\u8cc7\u6e90\u8655\u6c34\u5229\u884c\u653f\u79d1", "IoWPhysicalQuantityId": "87126009-b574-4278-9b3f-ca6919dab903", "IoWStationId": "00c66a84-265e-4b36-855c-9814d17e4a9c", "Name": "\u7121\u5c3e\u6e2f\u820a\u9598\u9580", "StationId": "3764200RV20010", "TownCode": 10002030, "type": "waterlevel"}, "geometry": {"type": "Point", "coordinates": [121.85563, 24.615925]}}, {"id": "8", "type": "Feature", "properties": {"AdminName": "\u5b9c\u862d\u7e23\u653f\u5e9c\u6c34\u5229\u8cc7\u6e90\u8655\u6c34\u5229\u884c\u653f\u79d1", "IoWPhysicalQuantityId": "e3f06a15-863c-422d-b90b-d1b434d99839", "IoWStationId": "9f580337-cd31-42ef-bbd9-a259cd721206", "Name": "\u671d\u967d\u6392\u6c34\u9580\u5167\u6c34\u4f4d", "StationId": "3764200RV20057", "TownCode": 10002030, "type": "waterlevel"}, "geometry": {"type": "Point", "coordinates": [121.80749, 24.44339]}}, {"id": "9", "type": "Feature", "properties": {"AdminName": "\u5b9c\u862d\u7e23\u653f\u5e9c\u6c34\u5229\u8cc7\u6e90\u8655\u6c34\u5229\u884c\u653f\u79d1", "IoWPhysicalQuantityId": "cd60a4d5-9097-421f-b59f-a77066afe76c", "IoWStationId": "b6a5b191-21c4-4a64-8e38-604bd7a291d8", "Name": "\u8607\u6fb3\u51b7\u6cc9\u516c\u5712\u6eef\u6d2a\u6c60", "StationId": "3764200RV20009", "TownCode": 10002030, "type": "waterlevel"}, "geometry": {"type": "Point", "coordinates": [121.84904, 24.598577]}}, {"id": "10", "type": "Feature", "properties": {"AdminName": "\u5b9c\u862d\u7e23\u653f\u5e9c\u6c34\u5229\u8cc7\u6e90\u8655\u6c34\u5229\u884c\u653f\u79d1", "IoWPhysicalQuantityId": "3e0f3511-73fb-474f-a8f1-bf8c90ebb68c", "IoWStationId": "f049f5b1-2c39-44a3-9a9b-09fefc33294f", "Name": "R\u5e79\u7dda\u51fa\u53e3", "StationId": "3764200RV20026", "TownCode": 10002030, "type": "waterlevel"}, "geometry": {"type": "Point", "coordinates": [121.8534, 24.5944]}}, {"id": "11", "type": "Feature", "properties": {"AdminName": "\u5b9c\u862d\u7e23\u653f\u5e9c\u6c34\u5229\u8cc7\u6e90\u8655\u6c34\u5229\u884c\u653f\u79d1", "IoWPhysicalQuantityId": "89c47266-d1bb-4e7e-8c40-722fd7b0ff58", "IoWStationId": "118151fb-2f93-4db6-8262-98eb74b8a927", "Name": "\u4e8c\u5341\u4e94\u9023\u9632\u6f6e\u9598\u9580\u5916\u6c34\u4f4d", "StationId": "3764200RV20051", "TownCode": 10002040, "type": "waterlevel"}, "geometry": {"type": "Point", "coordinates": [121.812485, 24.830027]}}, {"id": "12", "type": "Feature", "properties": {"AdminName": "\u5b9c\u862d\u7e23\u653f\u5e9c\u6c34\u5229\u8cc7\u6e90\u8655\u6c34\u5229\u884c\u653f\u79d1", "IoWPhysicalQuantityId": "074563dd-c9a5-47dc-8216-3bef56f31b71", "IoWStationId": "3d862347-057f-4a03-b628-742ce45b8568", "Name": "\u7af9\u8606\u516d\u9023\u6392\u6c34\u9580\u5167\u6c34\u4f4d", "StationId": "3764200RV20035", "TownCode": 10002040, "type": "waterlevel"}, "geometry": {"type": "Point", "coordinates": [121.814995, 24.831907]}}, {"id": "13", "type": "Feature", "properties": {"AdminName": "\u5b9c\u862d\u7e23\u653f\u5e9c\u6c34\u5229\u8cc7\u6e90\u8655\u6c34\u5229\u884c\u653f\u79d1", "IoWPhysicalQuantityId": "d73dcf07-0f9d-4511-bc69-ecf5cb1ae7c0", "IoWStationId": "632bd447-fc77-497a-90db-82df61351d55", "Name": "\u5927\u5751\u7f5f\u9632\u6f6e\u9598\u9580\u5916\u6c34\u4f4d", "StationId": "3764200RV20053", "TownCode": 10002040, "type": "waterlevel"}, "geometry": {"type": "Point", "coordinates": [121.82734, 24.85189]}}, {"id": "14", "type": "Feature", "properties": {"AdminName": "\u5b9c\u862d\u7e23\u653f\u5e9c\u6c34\u5229\u8cc7\u6e90\u8655\u6c34\u5229\u884c\u653f\u79d1", "IoWPhysicalQuantityId": "97acf648-5a2f-4d4f-91dc-00747b9509a0", "IoWStationId": "b61a00c2-a031-4b82-b5eb-379207d5da23", "Name": "B16\u51fa\u53e3\u532f\u5165\u5317\u9580\u6eaa", "StationId": "3764200RV20011", "TownCode": 10002040, "type": "waterlevel"}, "geometry": {"type": "Point", "coordinates": [121.826485, 24.85906]}}, {"id": "15", "type": "Feature", "properties": {"AdminName": "\u5b9c\u862d\u7e23\u653f\u5e9c\u6c34\u5229\u8cc7\u6e90\u8655\u6c34\u5229\u884c\u653f\u79d1", "IoWPhysicalQuantityId": "31404448-8944-4742-8c2d-7bb95a6981ed", "IoWStationId": "bc9cb4e0-be09-4f8a-ac81-e01ad998017d", "Name": "\u4e09\u5341\u4e94\u7532\u516d\u9023\u6392\u6c34\u9580\u5167\u6c34\u4f4d", "StationId": "3764200RV20065", "TownCode": 10002040, "type": "waterlevel"}, "geometry": {"type": "Point", "coordinates": [121.82109, 24.83963]}}, {"id": "16", "type": "Feature", "properties": {"AdminName": "\u5b9c\u862d\u7e23\u653f\u5e9c\u6c34\u5229\u8cc7\u6e90\u8655\u6c34\u5229\u884c\u653f\u79d1", "IoWPhysicalQuantityId": "2479f72c-8635-4491-a45c-acd52ea5c094", "IoWStationId": "cf3e72c8-a2c5-4818-aae7-1fdabab2b2b1", "Name": "\u62b5\u7f8e\u7c21\u5733\u516d\u9023\u6392\u6c34\u9580\u5167\u6c34\u4f4d", "StationId": "3764200RV20048", "TownCode": 10002040, "type": "waterlevel"}, "geometry": {"type": "Point", "coordinates": [121.802345, 24.829775]}}, {"id": "17", "type": "Feature", "properties": {"AdminName": "\u5b9c\u862d\u7e23\u653f\u5e9c\u6c34\u5229\u8cc7\u6e90\u8655\u6c34\u5229\u884c\u653f\u79d1", "IoWPhysicalQuantityId": "fa40e31f-5699-4cb2-8ed9-b291d526f2ff", "IoWStationId": "e011b63d-0cd1-4fd4-8542-3498cb7f1d95", "Name": "\u7af9\u5b89\u7b2c\u4e00\u6392\u6c34\u9580\u5167\u6c34\u4f4d", "StationId": "3764200RV20060", "TownCode": 10002040, "type": "waterlevel"}, "geometry": {"type": "Point", "coordinates": [121.818756, 24.82498]}}, {"id": "18", "type": "Feature", "properties": {"AdminName": "\u5b9c\u862d\u7e23\u653f\u5e9c\u6c34\u5229\u8cc7\u6e90\u8655\u6c34\u5229\u884c\u653f\u79d1", "IoWPhysicalQuantityId": "61cc041a-25ea-4f22-b208-84ef4b663ba4", "IoWStationId": "093e35e5-00a4-4c8c-9641-aa7cf75ef1b7", "Name": "\u4e8c\u9f8d\u6cb3\u4e0a\u6e38\u6392\u6c34\u9580\u5167\u6c34\u4f4d", "StationId": "3764200RV20037", "TownCode": 10002050, "type": "waterlevel"}, "geometry": {"type": "Point", "coordinates": [121.77338, 24.806799]}}, {"id": "19", "type": "Feature", "properties": {"AdminName": "\u5b9c\u862d\u7e23\u653f\u5e9c\u6c34\u5229\u8cc7\u6e90\u8655\u6c34\u5229\u884c\u653f\u79d1", "IoWPhysicalQuantityId": "518065c9-dc9a-427e-83e4-6e2cdc97fbbc", "IoWStationId": "104d1f04-54c3-4533-b93c-e8758828eb5c", "Name": "\u6c11\u6b0a\u4e00\u4e2d\u6392\u6c34\u9580\u5916\u6c34\u4f4d", "StationId": "3764200RV20030", "TownCode": 10002050, "type": "waterlevel"}, "geometry": {"type": "Point", "coordinates": [121.78573, 24.807579]}}, {"id": "20", "type": "Feature", "properties": {"AdminName": "\u5b9c\u862d\u7e23\u653f\u5e9c\u6c34\u5229\u8cc7\u6e90\u8655\u6c34\u5229\u884c\u653f\u79d1", "IoWPhysicalQuantityId": "b9427823-1614-4f30-ad4a-e55e4428814a", "IoWStationId": "15610dbb-c2ee-40c3-9fdb-b3e6737293d3", "Name": "\u7389\u7530\u6392\u6c34\u9580\u5916\u6c34\u4f4d", "StationId": "3764200RV20024", "TownCode": 10002050, "type": "waterlevel"}, "geometry": {"type": "Point", "coordinates": [121.801384, 24.814209]}}, {"id": "21", "type": "Feature", "properties": {"AdminName": "\u5b9c\u862d\u7e23\u653f\u5e9c\u6c34\u5229\u8cc7\u6e90\u8655\u6c34\u5229\u884c\u653f\u79d1", "IoWPhysicalQuantityId": "0d0b302b-5856-4560-a2fb-36fc57cd4386", "IoWStationId": "28a31ed3-86c8-42cd-8ad7-c38dc20833ed", "Name": "\u5be6\u8e10\u6392\u6c34\u9580\u5167\u6c34\u4f4d", "StationId": "3764200RV20067", "TownCode": 10002050, "type": "waterlevel"}, "geometry": {"type": "Point", "coordinates": [121.77981, 24.80223]}}, {"id": "22", "type": "Feature", "properties": {"AdminName": "\u5b9c\u862d\u7e23\u653f\u5e9c\u6c34\u5229\u8cc7\u6e90\u8655\u6c34\u5229\u884c\u653f\u79d1", "IoWPhysicalQuantityId": "82181c45-561f-412e-9172-14651999763e", "IoWStationId": "2d606abc-bb70-422c-b312-62876d79a4ab", "Name": "\u586d\u5e95\u4e5d\u9023\u6392\u6c34\u9580\u5167\u6c34\u4f4d", "StationId": "3764200RV20047", "TownCode": 10002050, "type": "waterlevel"}, "geometry": {"type": "Point", "coordinates": [121.80641, 24.813154]}}, {"id": "23", "type": "Feature", "properties": {"AdminName": "\u5b9c\u862d\u7e23\u653f\u5e9c\u6c34\u5229\u8cc7\u6e90\u8655\u6c34\u5229\u884c\u653f\u79d1", "IoWPhysicalQuantityId": "72774032-85ef-470f-8603-c28cc29cfc9b", "IoWStationId": "3b831521-02bf-46df-bc9d-31044a015643", "Name": "\u671d\u967d19-1\u4e2d\u6392\u6c34\u9580\u5167\u6c34\u4f4d", "StationId": "3764200RV20058", "TownCode": 10002050, "type": "waterlevel"}, "geometry": {"type": "Point", "coordinates": [121.807465, 24.812977]}}, {"id": "24", "type": "Feature", "properties": {"AdminName": "\u5b9c\u862d\u7e23\u653f\u5e9c\u6c34\u5229\u8cc7\u6e90\u8655\u6c34\u5229\u884c\u653f\u79d1", "IoWPhysicalQuantityId": "2c072e72-7cf5-4738-a99a-02f05450d435", "IoWStationId": "494f1af0-03de-48f2-9913-89b645c5a7f4", "Name": "\u7802\u4ed4\u6e2f\u9632\u6f6e\u9598\u9580\u5916\u6c34\u4f4d", "StationId": "3764200RV20072", "TownCode": 10002050, "type": "waterlevel"}, "geometry": {"type": "Point", "coordinates": [121.80072, 24.826057]}}, {"id": "25", "type": "Feature", "properties": {"AdminName": "\u5b9c\u862d\u7e23\u653f\u5e9c\u6c34\u5229\u8cc7\u6e90\u8655\u6c34\u5229\u884c\u653f\u79d1", "IoWPhysicalQuantityId": "158cc742-e61d-470e-bb1b-f6a2951e2f7d", "IoWStationId": "54dfaeb6-1d10-48d5-8794-f76e2a684d04", "Name": "\u6642\u6f6e\u6c34\u4f4d\u7ad9", "StationId": "3764200RV20021", "TownCode": 10002050, "type": "waterlevel"}, "geometry": {"type": "Point", "coordinates": [121.8014, 24.804901]}}, {"id": "26", "type": "Feature", "properties": {"AdminName": "\u5b9c\u862d\u7e23\u653f\u5e9c\u6c34\u5229\u8cc7\u6e90\u8655\u6c34\u5229\u884c\u653f\u79d1", "IoWPhysicalQuantityId": "cf6e9e6c-f278-4af2-912b-8efa124f89bd", "IoWStationId": "5e6c8af9-6b23-42ad-811f-47ee78f29bef", "Name": "\u4e8c\u5341\u4e94\u9023\u9632\u6f6e\u9598\u9580\u5167\u6c34\u4f4d", "StationId": "3764200RV20032", "TownCode": 10002050, "type": "waterlevel"}, "geometry": {"type": "Point", "coordinates": [121.81303, 24.829716]}}, {"id": "27", "type": "Feature", "properties": {"AdminName": "\u5b9c\u862d\u7e23\u653f\u5e9c\u6c34\u5229\u8cc7\u6e90\u8655\u6c34\u5229\u884c\u653f\u79d1", "IoWPhysicalQuantityId": "d76ac89b-488e-4c75-b377-94cf3df49b10", "IoWStationId": "7157657b-806d-4466-adfd-d121ff4a900f", "Name": "\u6dc7\u6b66\u862d\u6392\u6c34\u9580\u5167\u6c34\u4f4d", "StationId": "3764200RV20038", "TownCode": 10002050, "type": "waterlevel"}, "geometry": {"type": "Point", "coordinates": [121.778595, 24.806028]}}, {"id": "28", "type": "Feature", "properties": {"AdminName": "\u5b9c\u862d\u7e23\u653f\u5e9c\u6c34\u5229\u8cc7\u6e90\u8655\u6c34\u5229\u884c\u653f\u79d1", "IoWPhysicalQuantityId": "15d46776-dcb2-4393-91d0-703d7c62a3b3", "IoWStationId": "884cf1aa-00e7-43ea-af7f-65d544858bf6", "Name": "\u7389\u7530\u6c34\u4f4d\u7ad9", "StationId": "3764200RV20004", "TownCode": 10002050, "type": "waterlevel"}, "geometry": {"type": "Point", "coordinates": [121.7864, 24.8065]}}, {"id": "29", "type": "Feature", "properties": {"AdminName": "\u5b9c\u862d\u7e23\u653f\u5e9c\u6c34\u5229\u8cc7\u6e90\u8655\u6c34\u5229\u884c\u653f\u79d1", "IoWPhysicalQuantityId": "ce8bc583-e6de-4be3-9f4a-3b39239c9e59", "IoWStationId": "95417e4f-3fd7-4634-b9c9-d32437b07844", "Name": "\u671d\u967d19\u4e2d\u6392\u6c34\u9580\u5167\u6c34\u4f4d", "StationId": "3764200RV20013", "TownCode": 10002050, "type": "waterlevel"}, "geometry": {"type": "Point", "coordinates": [121.80919, 24.813892]}}, {"id": "30", "type": "Feature", "properties": {"AdminName": "\u5b9c\u862d\u7e23\u653f\u5e9c\u6c34\u5229\u8cc7\u6e90\u8655\u6c34\u5229\u884c\u653f\u79d1", "IoWPhysicalQuantityId": "0bdf0b02-e2b8-4465-a122-28f31d9978c9", "IoWStationId": "b557c134-0aee-40ca-a283-0762a6f1c1db", "Name": "\u671d\u967d22\u4e2d\u6392\u6c34\u9580\u5167\u6c34\u4f4d", "StationId": "3764200RV20073", "TownCode": 10002050, "type": "waterlevel"}, "geometry": {"type": "Point", "coordinates": [121.81434, 24.816788]}}, {"id": "31", "type": "Feature", "properties": {"AdminName": "\u5b9c\u862d\u7e23\u653f\u5e9c\u6c34\u5229\u8cc7\u6e90\u8655\u6c34\u5229\u884c\u653f\u79d1", "IoWPhysicalQuantityId": "e5c72f3b-dd3d-4dc2-b794-37ef91a803ab", "IoWStationId": "b5f805b8-0f82-47be-ab4c-ee5f58f8e495", "Name": "\u738b\u901a\u586d\u4e8c\u9023\u6392\u6c34\u9580\u5167\u6c34\u4f4d", "StationId": "3764200RV20046", "TownCode": 10002050, "type": "waterlevel"}, "geometry": {"type": "Point", "coordinates": [121.81676, 24.830208]}}, {"id": "32", "type": "Feature", "properties": {"AdminName": "\u5b9c\u862d\u7e23\u653f\u5e9c\u6c34\u5229\u8cc7\u6e90\u8655\u6c34\u5229\u884c\u653f\u79d1", "IoWPhysicalQuantityId": "487bbcbb-16cb-4ac9-b751-5fc6296132c6", "IoWStationId": "cc6516e5-48d0-4981-8abb-998a274e08ab", "Name": "\u7389\u7530\u6392\u6c34\u9580\u5167\u6c34\u4f4d", "StationId": "3764200RV20008", "TownCode": 10002050, "type": "waterlevel"}, "geometry": {"type": "Point", "coordinates": [121.801056, 24.813908]}}, {"id": "33", "type": "Feature", "properties": {"AdminName": "\u5b9c\u862d\u7e23\u653f\u5e9c\u6c34\u5229\u8cc7\u6e90\u8655\u6c34\u5229\u884c\u653f\u79d1", "IoWPhysicalQuantityId": "3dd4c251-7388-48e4-8853-7bde80615888", "IoWStationId": "d039f178-de0d-4be1-a82f-715f7a5487e9", "Name": "\u6b66\u6696\u6392\u6c34\u9580\u5916\u6c34\u4f4d", "StationId": "3764200RV20066", "TownCode": 10002050, "type": "waterlevel"}, "geometry": {"type": "Point", "coordinates": [121.78015, 24.804995]}}, {"id": "34", "type": "Feature", "properties": {"AdminName": "\u5b9c\u862d\u7e23\u653f\u5e9c\u6c34\u5229\u8cc7\u6e90\u8655\u6c34\u5229\u884c\u653f\u79d1", "IoWPhysicalQuantityId": "ee576262-b64b-4765-b6cf-9b742bddf6e8", "IoWStationId": "d271f2ff-9797-451f-bcca-3f33902a45f7", "Name": "\u86b5\u767d\u6e9d\u91e3\u9c49\u6a4b", "StationId": "3764200RV20006", "TownCode": 10002050, "type": "waterlevel"}, "geometry": {"type": "Point", "coordinates": [121.798904, 24.8231]}}, {"id": "35", "type": "Feature", "properties": {"AdminName": "\u5b9c\u862d\u7e23\u653f\u5e9c\u6c34\u5229\u8cc7\u6e90\u8655\u6c34\u5229\u884c\u653f\u79d1", "IoWPhysicalQuantityId": "61bd5f89-c44e-4f03-873c-af72fee639db", "IoWStationId": "f3f3d9d7-d829-4d74-b8da-91a80af83493", "Name": "\u671d\u967d14-2\u4e2d\u6392\u6c34\u9580\u5167\u6c34\u4f4d", "StationId": "3764200RV20109", "TownCode": 10002050, "type": "waterlevel"}, "geometry": {"type": "Point", "coordinates": [121.803375, 24.81581]}}, {"id": "36", "type": "Feature", "properties": {"AdminName": "\u5b9c\u862d\u7e23\u653f\u5e9c\u6c34\u5229\u8cc7\u6e90\u8655\u6c34\u5229\u884c\u653f\u79d1", "IoWPhysicalQuantityId": "08ff075b-f48e-4098-b131-0bcdb920ca03", "IoWStationId": "ff62476d-86a6-4be5-8b7f-7e3844ff50d9", "Name": "\u7f8e\u798f\u53f3\u5cb8\u6392\u6c34\u95803\u5916\u6c34\u4f4d", "StationId": "3764200RV20063", "TownCode": 10002050, "type": "waterlevel"}, "geometry": {"type": "Point", "coordinates": [121.794395, 24.798496]}}, {"id": "37", "type": "Feature", "properties": {"AdminName": "\u6c34\u5229\u7f72\u6c34\u5229\u7f72", "IoWPhysicalQuantityId": "2933ee38-30ba-4af9-8d54-cda934bfd757", "IoWStationId": "1ceaa873-1c78-4e6e-ac50-3b40503f4508", "Name": "\u5676\u746a\u862d\u6a4b", "StationId": "A130600WT256H804", "TownCode": 10002060, "type": "waterlevel"}, "geometry": {"type": "Point", "coordinates": [121.82059, 24.718948]}}, {"id": "38", "type": "Feature", "properties": {"AdminName": "\u5b9c\u862d\u7e23\u653f\u5e9c\u6c34\u5229\u8cc7\u6e90\u8655\u6c34\u5229\u884c\u653f\u79d1", "IoWPhysicalQuantityId": "94ee505f-1d8a-475f-82ec-1c3807749859", "IoWStationId": "3256e319-9053-43e3-a157-6df10642bec1", "Name": "\u58ef\u6771\u5927\u6392\u81ea\u52d5\u6c34\u95803\u5916\u6c34\u4f4d", "StationId": "3764200RV20031", "TownCode": 10002060, "type": "waterlevel"}, "geometry": {"type": "Point", "coordinates": [121.81424, 24.76164]}}, {"id": "39", "type": "Feature", "properties": {"AdminName": "\u5b9c\u862d\u7e23\u653f\u5e9c\u6c34\u5229\u8cc7\u6e90\u8655\u6c34\u5229\u884c\u653f\u79d1", "IoWPhysicalQuantityId": "a426d69b-6de0-4163-a98c-8852d00f8a6f", "IoWStationId": "3ce47b9d-9460-46c4-8564-7609fe4f54b4", "Name": "\u7f8e\u798f\u53f3\u5cb8\u6392\u6c34\u95804\u5167\u6c34\u4f4d", "StationId": "3764200RV20018", "TownCode": 10002060, "type": "waterlevel"}, "geometry": {"type": "Point", "coordinates": [121.80137, 24.725876]}}, {"id": "40", "type": "Feature", "properties": {"AdminName": "\u5b9c\u862d\u7e23\u653f\u5e9c\u6c34\u5229\u8cc7\u6e90\u8655\u6c34\u5229\u884c\u653f\u79d1", "IoWPhysicalQuantityId": "9de52e9e-8ff2-4f25-9681-23dc6577d393", "IoWStationId": "3cff39fe-0907-49d6-ba7b-09abb9e99add", "Name": "\u820a\u6e2f\u6392\u6c34\u9598\u9580\u5167\u6c34\u4f4d", "StationId": "3764200RV20061", "TownCode": 10002060, "type": "waterlevel"}, "geometry": {"type": "Point", "coordinates": [121.80532, 24.725134]}}, {"id": "41", "type": "Feature", "properties": {"AdminName": "\u5b9c\u862d\u7e23\u653f\u5e9c\u6c34\u5229\u8cc7\u6e90\u8655\u6c34\u5229\u884c\u653f\u79d1", "IoWPhysicalQuantityId": "32d5425b-c0ad-45b6-a32f-08f86fb19fb9", "IoWStationId": "4d9c62e0-3d98-4b2c-94a3-b8cb3e01a3be", "Name": "\u7f8e\u798f\u53f3\u5cb8\u6392\u6c34\u95805\u5167\u6c34\u4f4d", "StationId": "3764200RV20071", "TownCode": 10002060, "type": "waterlevel"}, "geometry": {"type": "Point", "coordinates": [121.81595, 24.719748]}}, {"id": "42", "type": "Feature", "properties": {"AdminName": "\u5b9c\u862d\u7e23\u653f\u5e9c\u6c34\u5229\u8cc7\u6e90\u8655\u6c34\u5229\u884c\u653f\u79d1", "IoWPhysicalQuantityId": "9d9d63fa-2078-4640-9588-4cb607592cb2", "IoWStationId": "7ed6d64d-2d3a-4d48-a3f7-c35e502f97a8", "Name": "\u53e4\u4ead\u6392\u6c34\u9598\u9580\u5167\u6c34\u4f4d", "StationId": "3764200RV20012", "TownCode": 10002060, "type": "waterlevel"}, "geometry": {"type": "Point", "coordinates": [121.80644, 24.79419]}}, {"id": "43", "type": "Feature", "properties": {"AdminName": "\u7d93\u6fdf\u90e8\u6c34\u5229\u7f72\u6c34\u6587\u6280\u8853\u7d44", "IoWPhysicalQuantityId": "27b3b166-7f99-4ccf-bd23-a3ca2e024f02", "IoWStationId": "d2cd1f8e-0381-4f5d-a11f-51319dae16e1", "Name": "\u5676\u746a\u862d\u6a4b-NB", "StationId": "A130600RV2560020", "TownCode": 10002060, "type": "waterlevel"}, "geometry": {"type": "Point", "coordinates": [121.82059, 24.718948]}}, {"id": "44", "type": "Feature", "properties": {"AdminName": "\u5b9c\u862d\u7e23\u653f\u5e9c\u6c34\u5229\u8cc7\u6e90\u8655\u6c34\u5229\u884c\u653f\u79d1", "IoWPhysicalQuantityId": "46bc3bc3-d961-4b5c-980b-bcad6f56a733", "IoWStationId": "ecec97f3-c8a4-4eef-a81d-ae184164aad8", "Name": "\u53e4\u4ead\u6c34\u4f4d\u7ad9", "StationId": "3764200RV20029", "TownCode": 10002060, "type": "waterlevel"}, "geometry": {"type": "Point", "coordinates": [121.80333, 24.793242]}}, {"id": "45", "type": "Feature", "properties": {"AdminName": "\u5b9c\u862d\u7e23\u653f\u5e9c\u6c34\u5229\u8cc7\u6e90\u8655\u6c34\u5229\u884c\u653f\u79d1", "IoWPhysicalQuantityId": "905962aa-1c26-4851-b564-51300acc10ce", "IoWStationId": "f471dc46-5fb9-4c13-9976-83cb20729415", "Name": "\u65b0\u5357\u6a4b\u7ad9", "StationId": "3764200RV20055", "TownCode": 10002060, "type": "waterlevel"}, "geometry": {"type": "Point", "coordinates": [121.8013, 24.725]}}, {"id": "46", "type": "Feature", "properties": {"AdminName": "\u5b9c\u862d\u7e23\u653f\u5e9c\u6c34\u5229\u8cc7\u6e90\u8655\u6c34\u5229\u884c\u653f\u79d1", "IoWPhysicalQuantityId": "94c41d57-5ba5-42c9-ad1b-d9d7c7d5b407", "IoWStationId": "f5c7d75b-e237-406d-82c3-aa67317b2a96", "Name": "\u56db\u7d50\u7530\u4ed4\u6a4b\u7ad9\u4e00", "StationId": "3764200RV20033", "TownCode": 10002060, "type": "waterlevel"}, "geometry": {"type": "Point", "coordinates": [121.8093, 24.7252]}}, {"id": "47", "type": "Feature", "properties": {"AdminName": "\u5b9c\u862d\u7e23\u653f\u5e9c\u6c34\u5229\u8cc7\u6e90\u8655\u6c34\u5229\u884c\u653f\u79d1", "IoWPhysicalQuantityId": "7e9688f1-6d88-4ac8-a840-6cef9978192d", "IoWStationId": "75e18bb0-6ca8-4dc9-aa0b-26834809cc64", "Name": "\u870a\u57e4\u8def\u53e3\u6392\u6c34\u9580\u5916\u6c34\u4f4d", "StationId": "3764200RV20027", "TownCode": 10002070, "type": "waterlevel"}, "geometry": {"type": "Point", "coordinates": [121.69801, 24.752028]}}, {"id": "48", "type": "Feature", "properties": {"AdminName": "\u5b9c\u862d\u7e23\u653f\u5e9c\u6c34\u5229\u8cc7\u6e90\u8655\u6c34\u5229\u884c\u653f\u79d1", "IoWPhysicalQuantityId": "44e0a58e-8671-4961-86ed-f6d66915815b", "IoWStationId": "11ceb5c0-f105-44dd-b895-08106832133f", "Name": "C\u5e79\u7dda\u51fa\u53e3", "StationId": "3764200RV20075", "TownCode": 10002080, "type": "waterlevel"}, "geometry": {"type": "Point", "coordinates": [121.7752, 24.662003]}}, {"id": "49", "type": "Feature", "properties": {"AdminName": "\u5b9c\u862d\u7e23\u653f\u5e9c\u6c34\u5229\u8cc7\u6e90\u8655\u6c34\u5229\u884c\u653f\u79d1", "IoWPhysicalQuantityId": "3fdd5749-64f1-46c6-84ed-87fdd464af38", "IoWStationId": "48045544-0d99-4baa-9162-fd4844f2231a", "Name": "\u6797\u5bf6\u6625\u9632\u6f6e\u9598\u9580\u5167\u6c34\u4f4d", "StationId": "3764200RV20070", "TownCode": 10002080, "type": "waterlevel"}, "geometry": {"type": "Point", "coordinates": [121.81112, 24.66411]}}, {"id": "50", "type": "Feature", "properties": {"AdminName": "\u5b9c\u862d\u7e23\u653f\u5e9c\u6c34\u5229\u8cc7\u6e90\u8655\u6c34\u5229\u884c\u653f\u79d1", "IoWPhysicalQuantityId": "a4b4d11b-77fd-4733-a6a4-e9db13f10b03", "IoWStationId": "5b7ac41f-a1df-40a2-bc12-c43178ae438d", "Name": "\u6797\u5bf6\u6625\u5de6\u5cb8\u6392\u6c34\u95801\u5916\u6c34\u4f4d", "StationId": "3764200RV20044", "TownCode": 10002080, "type": "waterlevel"}, "geometry": {"type": "Point", "coordinates": [121.80731, 24.656015]}}, {"id": "51", "type": "Feature", "properties": {"AdminName": "\u5b9c\u862d\u7e23\u653f\u5e9c\u6c34\u5229\u8cc7\u6e90\u8655\u6c34\u5229\u884c\u653f\u79d1", "IoWPhysicalQuantityId": "ff9b197a-fbe6-4528-abbc-4d7ad05f617b", "IoWStationId": "6371d793-f57c-4472-8093-c1a9387da164", "Name": "\u5341\u516d\u4efd\u4e94\u8def\u6a4b", "StationId": "3764200RV20034", "TownCode": 10002080, "type": "waterlevel"}, "geometry": {"type": "Point", "coordinates": [121.790276, 24.665838]}}, {"id": "52", "type": "Feature", "properties": {"AdminName": "\u7d93\u6fdf\u90e8\u6c34\u5229\u7f72\u6c34\u6587\u6280\u8853\u7d44", "IoWPhysicalQuantityId": "e3aacef3-8e21-4e45-bf77-3fa84f21a89a", "IoWStationId": "6e2d8cde-a2f0-44fc-9756-43900c5169ee", "Name": "\u5317\u6210\u6a4b-NB", "StationId": "A130600RV2560023", "TownCode": 10002080, "type": "waterlevel"}, "geometry": {"type": "Point", "coordinates": [121.74523, 24.684006]}}, {"id": "53", "type": "Feature", "properties": {"AdminName": "\u6c34\u5229\u7f72\u6c34\u5229\u7f72", "IoWPhysicalQuantityId": "f21c7f03-79ca-4030-baae-bb7e6abfbb7f", "IoWStationId": "7706bbcc-b62f-44ae-8546-cd9da1f459b1", "Name": "\u5317\u6210\u6a4b", "StationId": "A130600WT256H807", "TownCode": 10002080, "type": "waterlevel"}, "geometry": {"type": "Point", "coordinates": [121.74523, 24.684006]}}, {"id": "54", "type": "Feature", "properties": {"AdminName": "\u5b9c\u862d\u7e23\u653f\u5e9c\u6c34\u5229\u8cc7\u6e90\u8655\u6c34\u5229\u884c\u653f\u79d1", "IoWPhysicalQuantityId": "ce1ab05d-91c1-402f-a73f-e79dfb894cf6", "IoWStationId": "7be00dec-a3d3-479d-83f0-f516a9cd5ffa", "Name": "\u73cd\u73e0\u6392\u6c34\u9580(\u5167)", "StationId": "3764200RV20074", "TownCode": 10002080, "type": "waterlevel"}, "geometry": {"type": "Point", "coordinates": [121.79456, 24.650974]}}, {"id": "55", "type": "Feature", "properties": {"AdminName": "\u5b9c\u862d\u7e23\u653f\u5e9c\u6c34\u5229\u8cc7\u6e90\u8655\u6c34\u5229\u884c\u653f\u79d1", "IoWPhysicalQuantityId": "c6bf4bd2-d5ae-4117-a9de-c323807e2c52", "IoWStationId": "901b3aef-2dda-4564-977a-db9c2f03c9ce", "Name": "\u5317\u5bcc\u5317\u5074\u6e9d\u6392\u6c34\u9580\u5916\u6c34\u4f4d", "StationId": "3764200RV20022", "TownCode": 10002080, "type": "waterlevel"}, "geometry": {"type": "Point", "coordinates": [121.81189, 24.66911]}}, {"id": "56", "type": "Feature", "properties": {"AdminName": "\u5b9c\u862d\u7e23\u653f\u5e9c\u6c34\u5229\u8cc7\u6e90\u8655\u6c34\u5229\u884c\u653f\u79d1", "IoWPhysicalQuantityId": "9a56725e-5203-4e36-b91d-807e03a95500", "IoWStationId": "945676f9-8593-4f36-93c5-6bec2a9aa516", "Name": "\u6797\u5bf6\u6625\u9632\u6f6e\u9598\u9580\u5916\u6c34\u4f4d", "StationId": "3764200RV20036", "TownCode": 10002080, "type": "waterlevel"}, "geometry": {"type": "Point", "coordinates": [121.81134, 24.664206]}}, {"id": "57", "type": "Feature", "properties": {"AdminName": "\u5b9c\u862d\u7e23\u653f\u5e9c\u6c34\u5229\u8cc7\u6e90\u8655\u6c34\u5229\u884c\u653f\u79d1", "IoWPhysicalQuantityId": "0dfe071a-64a3-403d-99b5-05184bc3af32", "IoWStationId": "9ac324d2-b9e9-4c75-ba7a-383804566754", "Name": "\u4e09\u5947\u6a4b", "StationId": "3764200RV20020", "TownCode": 10002080, "type": "waterlevel"}, "geometry": {"type": "Point", "coordinates": [121.81374, 24.643711]}}, {"id": "58", "type": "Feature", "properties": {"AdminName": "\u5b9c\u862d\u7e23\u653f\u5e9c\u6c34\u5229\u8cc7\u6e90\u8655\u6c34\u5229\u884c\u653f\u79d1", "IoWPhysicalQuantityId": "b389a09c-74ba-4c7b-9777-0a622e303f3f", "IoWStationId": "9ad5cc92-5a9d-49cf-b2f3-9dd95a3cfc11", "Name": "\u6b66\u6df5\u7802\u4ed4\u6e2f\u4e0a\u6e38(\u5167)", "StationId": "3764200RV20054", "TownCode": 10002080, "type": "waterlevel"}, "geometry": {"type": "Point", "coordinates": [121.79658, 24.655231]}}, {"id": "59", "type": "Feature", "properties": {"AdminName": "\u5b9c\u862d\u7e23\u653f\u5e9c\u6c34\u5229\u8cc7\u6e90\u8655\u6c34\u5229\u884c\u653f\u79d1", "IoWPhysicalQuantityId": "d3661a2e-1579-486d-bfc1-04b0fb3f4889", "IoWStationId": "b090c8c2-5b3d-4d3c-9da8-1bf950a154cd", "Name": "\u88dc\u57ce\u6392\u6c34\u9580\u5167\u6c34\u4f4d", "StationId": "3764200RV20016", "TownCode": 10002080, "type": "waterlevel"}, "geometry": {"type": "Point", "coordinates": [121.8104, 24.648195]}}, {"id": "60", "type": "Feature", "properties": {"AdminName": "\u5b9c\u862d\u7e23\u653f\u5e9c\u6c34\u5229\u8cc7\u6e90\u8655\u6c34\u5229\u884c\u653f\u79d1", "IoWPhysicalQuantityId": "555c5407-be05-41c0-98d7-99a604e8df0e", "IoWStationId": "b64684b7-8c36-40f2-bd95-7c7a3b585df6", "Name": "A10\u51fa\u53e3(\u532f\u5165\u7167\u5b89\u6eaa)", "StationId": "3764200RV20014", "TownCode": 10002080, "type": "waterlevel"}, "geometry": {"type": "Point", "coordinates": [121.788734, 24.634293]}}, {"id": "61", "type": "Feature", "properties": {"AdminName": "\u5b9c\u862d\u7e23\u653f\u5e9c\u6c34\u5229\u8cc7\u6e90\u8655\u6c34\u5229\u884c\u653f\u79d1", "IoWPhysicalQuantityId": "0556f922-933e-4afc-8927-5076ce8687f0", "IoWStationId": "dcd15bc4-8539-475c-9c97-ef986a7df19d", "Name": "\u6b66\u6df5\u6392\u6c34\u9580(\u5916)", "StationId": "3764200RV20064", "TownCode": 10002080, "type": "waterlevel"}, "geometry": {"type": "Point", "coordinates": [121.80237, 24.660505]}}, {"id": "62", "type": "Feature", "properties": {"AdminName": "\u5b9c\u862d\u7e23\u653f\u5e9c\u6c34\u5229\u8cc7\u6e90\u8655\u6c34\u5229\u884c\u653f\u79d1", "IoWPhysicalQuantityId": "a1086198-3662-423d-9006-e8c54e3bab39", "IoWStationId": "e368092c-17d9-45ae-b8ad-295b4d53c3b7", "Name": "\u6b66\u6df5\u7802\u4ed4\u6e2f\u4e0b\u6e38(\u5167)", "StationId": "3764200RV20052", "TownCode": 10002080, "type": "waterlevel"}, "geometry": {"type": "Point", "coordinates": [121.79714, 24.6061]}}, {"id": "63", "type": "Feature", "properties": {"AdminName": "\u5b9c\u862d\u7e23\u653f\u5e9c\u6c34\u5229\u8cc7\u6e90\u8655\u6c34\u5229\u884c\u653f\u79d1", "IoWPhysicalQuantityId": "02cce50e-6d80-4e18-8002-7efe1a9281ba", "IoWStationId": "e9d33d75-d5a1-41c4-9c30-2bab202f286b", "Name": "\u6797\u5bf6\u6625\u5de6\u5cb8\u6392\u6c34\u95801\u5167\u6c34\u4f4d", "StationId": "3764200RV20042", "TownCode": 10002080, "type": "waterlevel"}, "geometry": {"type": "Point", "coordinates": [121.80719, 24.65604]}}, {"id": "64", "type": "Feature", "properties": {"AdminName": "\u5b9c\u862d\u7e23\u653f\u5e9c\u6c34\u5229\u8cc7\u6e90\u8655\u6c34\u5229\u884c\u653f\u79d1", "IoWPhysicalQuantityId": "c07f9fed-6060-48e0-a0db-76d976a88c01", "IoWStationId": "2b5a1554-19bf-4f58-a617-bd152679727b", "Name": "\u4e94\u80a1\u9632\u6f6e\u9598\u9580\u5916\u6c34\u4f4d", "StationId": "3764200RV20002", "TownCode": 10002090, "type": "waterlevel"}, "geometry": {"type": "Point", "coordinates": [121.81896, 24.673042]}}, {"id": "65", "type": "Feature", "properties": {"AdminName": "\u5b9c\u862d\u7e23\u653f\u5e9c\u6c34\u5229\u8cc7\u6e90\u8655\u6c34\u5229\u884c\u653f\u79d1", "IoWPhysicalQuantityId": "8cfa3281-ae93-49c2-b76e-78f024f8fb95", "IoWStationId": "325b681c-a555-4016-b896-9e09e6c6ccd5", "Name": "\u5e73\u884c\u62bd\u6c34\u7ad9\u524d\u6c60", "StationId": "3764200RV20028", "TownCode": 10002090, "type": "waterlevel"}, "geometry": {"type": "Point", "coordinates": [121.82968, 24.700933]}}, {"id": "66", "type": "Feature", "properties": {"AdminName": "\u5b9c\u862d\u7e23\u653f\u5e9c\u6c34\u5229\u8cc7\u6e90\u8655\u6c34\u5229\u884c\u653f\u79d1", "IoWPhysicalQuantityId": "fcd0f7e6-134c-43fb-863f-ac0d5127c1e4", "IoWStationId": "37c18b7a-05a9-478c-8cea-c6eb18028e2f", "Name": "\u5e73\u884c\u5de6\u5cb8\u6392\u6c34\u95801\u5916\u6c34\u4f4d", "StationId": "3764200RV20152", "TownCode": 10002090, "type": "waterlevel"}, "geometry": {"type": "Point", "coordinates": [121.82487, 24.697227]}}, {"id": "67", "type": "Feature", "properties": {"AdminName": "\u5b9c\u862d\u7e23\u653f\u5e9c\u6c34\u5229\u8cc7\u6e90\u8655\u6c34\u5229\u884c\u653f\u79d1", "IoWPhysicalQuantityId": "47523ed7-6685-441d-bb90-b3e91a75d2c7", "IoWStationId": "3d59d4d5-a801-407a-b099-d7d3a034b4c2", "Name": "\u4e09\u7d50\u6a4b", "StationId": "3764200RV20068", "TownCode": 10002090, "type": "waterlevel"}, "geometry": {"type": "Point", "coordinates": [121.78064, 24.695206]}}, {"id": "68", "type": "Feature", "properties": {"AdminName": "\u5b9c\u862d\u7e23\u653f\u5e9c\u6c34\u5229\u8cc7\u6e90\u8655\u6c34\u5229\u884c\u653f\u79d1", "IoWPhysicalQuantityId": "9141be7c-d953-4c40-b6dc-9ff0bf897a86", "IoWStationId": "55eab850-2aa4-4e11-9a2b-6f6ae95fa534", "Name": "\u8305\u4ed4\u5bee\u6392\u6c34\u9580\u5167\u6c34\u4f4d", "StationId": "3764200RV20019", "TownCode": 10002090, "type": "waterlevel"}, "geometry": {"type": "Point", "coordinates": [121.82562, 24.704906]}}, {"id": "69", "type": "Feature", "properties": {"AdminName": "\u5b9c\u862d\u7e23\u653f\u5e9c\u6c34\u5229\u8cc7\u6e90\u8655\u6c34\u5229\u884c\u653f\u79d1", "IoWPhysicalQuantityId": "25bb716d-8eb4-4497-a742-1c0bdeb87630", "IoWStationId": "58a250e2-803a-4e50-b0b7-9774eff424cd", "Name": "\u5927\u5409\u6392\u6c34\u9580\u5167\u6c34\u4f4d", "StationId": "3764200RV20025", "TownCode": 10002090, "type": "waterlevel"}, "geometry": {"type": "Point", "coordinates": [121.80456, 24.699724]}}, {"id": "70", "type": "Feature", "properties": {"AdminName": "\u5b9c\u862d\u7e23\u653f\u5e9c\u6c34\u5229\u8cc7\u6e90\u8655\u6c34\u5229\u884c\u653f\u79d1", "IoWPhysicalQuantityId": "c117a938-0cdf-435b-b7b0-8bb21cb42b24", "IoWStationId": "6e909d04-af37-472c-b9c6-3ba83cdf8a87", "Name": "\u4e8c\u7d50\u6392\u6c34\u9580\u5916\u6c34\u4f4d", "StationId": "3764200RV20003", "TownCode": 10002090, "type": "waterlevel"}, "geometry": {"type": "Point", "coordinates": [121.81198, 24.702599]}}, {"id": "71", "type": "Feature", "properties": {"AdminName": "\u5b9c\u862d\u7e23\u653f\u5e9c\u6c34\u5229\u8cc7\u6e90\u8655\u6c34\u5229\u884c\u653f\u79d1", "IoWPhysicalQuantityId": "198c78d4-680a-4d6b-ad41-b3d7f6db39a8", "IoWStationId": "7ca718a7-a2ec-41f2-bb10-640cfe7aed09", "Name": "\u9326\u8349\u6c34\u4f4d\u7ad9", "StationId": "3764200RV20069", "TownCode": 10002090, "type": "waterlevel"}, "geometry": {"type": "Point", "coordinates": [121.82105, 24.706284]}}, {"id": "72", "type": "Feature", "properties": {"AdminName": "\u5b9c\u862d\u7e23\u653f\u5e9c\u6c34\u5229\u8cc7\u6e90\u8655\u6c34\u5229\u884c\u653f\u79d1", "IoWPhysicalQuantityId": "60d96ec5-3958-4f84-aa03-2ddac172e839", "IoWStationId": "89c1bdeb-5ee3-47d7-a46e-acf8b665f121", "Name": "\u8305\u4ed4\u5bee\u6392\u6c34\u9580\u5916\u6c34\u4f4d", "StationId": "3764200RV20005", "TownCode": 10002090, "type": "waterlevel"}, "geometry": {"type": "Point", "coordinates": [121.82568, 24.704906]}}, {"id": "73", "type": "Feature", "properties": {"AdminName": "\u5b9c\u862d\u7e23\u653f\u5e9c\u6c34\u5229\u8cc7\u6e90\u8655\u6c34\u5229\u884c\u653f\u79d1", "IoWPhysicalQuantityId": "d91f525f-6486-44ae-a01f-b2a4b8302c02", "IoWStationId": "8ccf858c-3694-4baa-b676-08535807cae2", "Name": "\u4e94\u7d50\u9632\u6f6e\u9598\u9580\u5167\u6c34\u4f4d", "StationId": "3764200RV20039", "TownCode": 10002090, "type": "waterlevel"}, "geometry": {"type": "Point", "coordinates": [121.832504, 24.692595]}}, {"id": "74", "type": "Feature", "properties": {"AdminName": "\u5b9c\u862d\u7e23\u653f\u5e9c\u6c34\u5229\u8cc7\u6e90\u8655\u6c34\u5229\u884c\u653f\u79d1", "IoWPhysicalQuantityId": "53a41a38-0fad-4e59-a5eb-7b1400150e97", "IoWStationId": "a0f17b1e-f8c3-4533-8750-3450a33fc4da", "Name": "\u5e73\u884c\u5de6\u5cb8\u6392\u6c34\u95801\u5167\u6c34\u4f4d", "StationId": "3764200RV20151", "TownCode": 10002090, "type": "waterlevel"}, "geometry": {"type": "Point", "coordinates": [121.82477, 24.697273]}}, {"id": "75", "type": "Feature", "properties": {"AdminName": "\u5b9c\u862d\u7e23\u653f\u5e9c\u6c34\u5229\u8cc7\u6e90\u8655\u6c34\u5229\u884c\u653f\u79d1", "IoWPhysicalQuantityId": "1a61edb3-93d3-4142-a2eb-d36b64894418", "IoWStationId": "b4a4e4ac-bae0-4cb7-a1f3-6099886b1f8c", "Name": "\u93ae\u6cb3\u5edf\u65c1\u4e09\u6392\u6c34\u9580\u5167\u6c34\u4f4d", "StationId": "3764200RV20049", "TownCode": 10002090, "type": "waterlevel"}, "geometry": {"type": "Point", "coordinates": [121.823555, 24.677258]}}, {"id": "76", "type": "Feature", "properties": {"AdminName": "\u5b9c\u862d\u7e23\u653f\u5e9c\u6c34\u5229\u8cc7\u6e90\u8655\u6c34\u5229\u884c\u653f\u79d1", "IoWPhysicalQuantityId": "c4ab394a-8875-469b-989c-8bbd567d7732", "IoWStationId": "c2304eb8-33b6-495a-954e-994726937749", "Name": "\u5e73\u884c\u6c34\u4f4d\u7ad9\u5167\u6c34\u4f4d", "StationId": "3764200RV20015", "TownCode": 10002090, "type": "waterlevel"}, "geometry": {"type": "Point", "coordinates": [121.82994, 24.701452]}}, {"id": "77", "type": "Feature", "properties": {"AdminName": "\u5b9c\u862d\u7e23\u653f\u5e9c\u6c34\u5229\u8cc7\u6e90\u8655\u6c34\u5229\u884c\u653f\u79d1", "IoWPhysicalQuantityId": "a25ee9cf-faff-4c51-8bf5-254f0415abc8", "IoWStationId": "cc8d7bfc-a486-47db-ab1f-0fe2bd17a5e6", "Name": "\u5e73\u884c\u6c34\u4f4d\u7ad9\u5916\u6c34\u4f4d", "StationId": "3764200RV20045", "TownCode": 10002090, "type": "waterlevel"}, "geometry": {"type": "Point", "coordinates": [121.830086, 24.701618]}}, {"id": "78", "type": "Feature", "properties": {"AdminName": "\u5b9c\u862d\u7e23\u653f\u5e9c\u6c34\u5229\u8cc7\u6e90\u8655\u6c34\u5229\u884c\u653f\u79d1", "IoWPhysicalQuantityId": "825df202-8f43-4b02-97fc-dee358d6ca36", "IoWStationId": "d72f271f-89b4-4d65-901c-bf14fe31fd80", "Name": "\u4e94\u80a1\u7b2c\u4e8c\u9632\u6f6e\u9598\u9580\u5167\u6c34\u4f4d", "StationId": "3764200RV20059", "TownCode": 10002090, "type": "waterlevel"}, "geometry": {"type": "Point", "coordinates": [121.81917, 24.666521]}}, {"id": "79", "type": "Feature", "properties": {"AdminName": "\u5b9c\u862d\u7e23\u653f\u5e9c\u6c34\u5229\u8cc7\u6e90\u8655\u6c34\u5229\u884c\u653f\u79d1", "IoWPhysicalQuantityId": "13d02abd-fb70-4ce9-90cb-8cbda0bd2663", "IoWStationId": "e380271a-5561-4966-acb4-41691f61fd0e", "Name": "\u5be6\u8e10\u6392\u6c34\u9580\u5916\u6c34\u4f4d", "StationId": "3764200RV20017", "TownCode": 10002090, "type": "waterlevel"}, "geometry": {"type": "Point", "coordinates": [121.77968, 24.701452]}}, {"id": "80", "type": "Feature", "properties": {"AdminName": "\u5b9c\u862d\u7e23\u653f\u5e9c\u6c34\u5229\u8cc7\u6e90\u8655\u6c34\u5229\u884c\u653f\u79d1", "IoWPhysicalQuantityId": "53a1fe12-bdb9-41e6-a3fb-9d4110651df6", "IoWStationId": "ece7d73d-0214-4845-8c61-dd08f47edf09", "Name": "\u9686\u6069\u6392\u6c34\u9580\u5167\u6c34\u4f4d", "StationId": "3764200RV20041", "TownCode": 10002090, "type": "waterlevel"}, "geometry": {"type": "Point", "coordinates": [121.81256, 24.653202]}}, {"id": "81", "type": "Feature", "properties": {"AdminName": "\u5b9c\u862d\u7e23\u653f\u5e9c\u6c34\u5229\u8cc7\u6e90\u8655\u6c34\u5229\u884c\u653f\u79d1", "IoWPhysicalQuantityId": "21a84888-3f81-4939-b40b-1908b70eb9f4", "IoWStationId": "f70b80dd-2982-4eaa-b9d6-88be0010bc58", "Name": "\u4e94\u7d50\u9632\u6f6e\u9598\u9580\u65c1\u5c0f\u62bd\u6c34\u6a5f2\u53f0\u5167\u6c34\u4f4d", "StationId": "3764200RV20007", "TownCode": 10002090, "type": "waterlevel"}, "geometry": {"type": "Point", "coordinates": [121.83473, 24.691866]}}, {"id": "82", "type": "Feature", "properties": {"AdminName": "\u5b9c\u862d\u7e23\u653f\u5e9c\u6c34\u5229\u8cc7\u6e90\u8655\u6c34\u5229\u884c\u653f\u79d1", "IoWPhysicalQuantityId": "2cec3b41-7502-43a7-aeb8-2fb43a367b6e", "IoWStationId": "f82eb2ac-25bc-4079-869d-d7abd3013983", "Name": "\u4e94\u80a1\u6a4b", "StationId": "3764200RV20040", "TownCode": 10002090, "type": "waterlevel"}, "geometry": {"type": "Point", "coordinates": [121.81841, 24.688286]}}, {"id": "83", "type": "Feature", "properties": {"AdminName": "\u6c34\u5229\u7f72\u6c34\u5229\u7f72", "IoWPhysicalQuantityId": "459dc3f7-d077-488f-b8a1-e42270edb8ef", "IoWStationId": "a9891dd4-c48a-47a5-b033-887284295639", "Name": "\u725b\u9b25(3)", "StationId": "A130600WT256H808", "TownCode": 10002100, "type": "waterlevel"}, "geometry": {"type": "Point", "coordinates": [121.56729, 24.642376]}}, {"id": "84", "type": "Feature", "properties": {"AdminName": "\u7d93\u6fdf\u90e8\u6c34\u5229\u7f72\u6c34\u6587\u6280\u8853\u7d44", "IoWPhysicalQuantityId": "7e2686dc-1b82-4e57-99b2-d01e9d995fd6", "IoWStationId": "ace6fa9e-9b8e-451d-b3e2-4f2104e2477f", "Name": "\u725b\u9b25\u6a4b-NB", "StationId": "A130600RV2560024", "TownCode": 10002100, "type": "waterlevel"}, "geometry": {"type": "Point", "coordinates": [121.56729, 24.642376]}}, {"id": "85", "type": "Feature", "properties": {"AdminName": "\u6c34\u5229\u7f72\u6c34\u5229\u7f72", "IoWPhysicalQuantityId": "f5863eef-13ce-4751-bccc-877fe3f8d7c4", "IoWStationId": "f77d0f5c-4a7a-4aa3-b1f7-ab5d1889bc3f", "Name": "\u6e05\u6c34\u5927\u6a4b", "StationId": "A130600WT256H806", "TownCode": 10002100, "type": "waterlevel"}, "geometry": {"type": "Point", "coordinates": [121.61342, 24.637121]}}, {"id": "86", "type": "Feature", "properties": {"AdminName": "\u6c34\u5229\u7f72\u6c34\u5229\u7f72", "IoWPhysicalQuantityId": "57859683-1024-40fe-aba4-b498b6ed9b35", "IoWStationId": "50b3fea4-e3f9-43ed-b566-21a921929d2b", "Name": "\u5bb6\u6e90\u6a4b", "StationId": "A130600WT256H802", "TownCode": 10002110, "type": "waterlevel"}, "geometry": {"type": "Point", "coordinates": [121.491844, 24.578278]}}, {"id": "87", "type": "Feature", "properties": {"AdminName": "\u7d93\u6fdf\u90e8\u6c34\u5229\u7f72\u6c34\u6587\u6280\u8853\u7d44", "IoWPhysicalQuantityId": "e0046c1f-7409-4bf4-9557-8033cbb19de2", "IoWStationId": "4967fea9-e4f2-4a04-bfcd-54186d0ff3f5", "Name": "\u5e0c\u80fd\u57d4\u6a4b-NB", "StationId": "A130600RV2500003", "TownCode": 10002120, "type": "waterlevel"}, "geometry": {"type": "Point", "coordinates": [121.74338, 24.324537]}}, {"id": "88", "type": "Feature", "properties": {"AdminName": "\u6c34\u5229\u7f72\u6c34\u5229\u7f72", "IoWPhysicalQuantityId": "66d4ef47-9187-4bf1-b389-994e0015f8ec", "IoWStationId": "69b947c7-80a5-4335-8833-891c09a6c276", "Name": "\u5e0c\u80fd\u57d4", "StationId": "A130600WT250H773", "TownCode": 10002120, "type": "waterlevel"}, "geometry": {"type": "Point", "coordinates": [121.74338, 24.324537]}}, {"id": "89", "type": "Feature", "properties": {"AdminName": "\u65b0\u7af9\u7e23\u653f\u5e9c", "IoWPhysicalQuantityId": "4c53f00a-151b-4f94-9619-b7866744b305", "IoWStationId": "37b880ef-4c6c-4f84-90fd-3e696dfaf781", "Name": "\u6c34\u5229\u5927\u6a4b\u6c34\u4f4d\u7ad9", "StationId": "3764400RV0016", "TownCode": 10004010, "type": "waterlevel"}, "geometry": {"type": "Point", "coordinates": [120.982056, 24.831133]}}, {"id": "90", "type": "Feature", "properties": {"AdminName": "\u7d93\u6fdf\u90e8\u6c34\u5229\u7f72\u7b2c\u4e8c\u6cb3\u5ddd\u5c40", "IoWPhysicalQuantityId": "3f0d6671-ff4d-4014-901e-9132afbc236b", "IoWStationId": "438f554d-7642-4389-9f39-5a94e0f72442", "Name": "\u767d\u5730\u5824\u9632", "StationId": "A130612RV0013", "TownCode": 10004010, "type": "waterlevel"}, "geometry": {"type": "Point", "coordinates": [120.96287, 24.852322]}}, {"id": "91", "type": "Feature", "properties": {"AdminName": "\u884c\u653f\u9662\u8fb2\u696d\u59d4\u54e1\u6703\u8fb2\u7530\u6c34\u5229\u7f72", "IoWPhysicalQuantityId": "e33488bc-535e-4e27-bcd8-1b7fdd5ad9b5", "IoWStationId": "585adc61-e675-4b57-a888-cf3d3c686971", "Name": "\u6771\u8208\u5733", "StationId": "A190605AR056", "TownCode": 10004010, "type": "waterlevel"}, "geometry": {"type": "Point", "coordinates": [121.05856, 24.79057]}}, {"id": "92", "type": "Feature", "properties": {"AdminName": "\u7d93\u6fdf\u90e8\u6c34\u5229\u7f72\u6c34\u6587\u6280\u8853\u7d44", "IoWPhysicalQuantityId": "9a5e32f3-3e89-4d3c-b545-a23f9cc7ea42", "IoWStationId": "710aa777-1903-430b-943d-1c29f33f6b6e", "Name": "\u7d93\u570b\u6a4b-NB", "StationId": "A130600RV1300017", "TownCode": 10004010, "type": "waterlevel"}, "geometry": {"type": "Point", "coordinates": [121.01948, 24.807886]}}, {"id": "93", "type": "Feature", "properties": {"AdminName": "\u65b0\u7af9\u7e23\u653f\u5e9c", "IoWPhysicalQuantityId": "2710b5b5-d8e3-4f0e-9350-780ae2cfa205", "IoWStationId": "77bfa106-519c-482b-9545-bc6f8d40e439", "Name": "\u8c93\u5152\u9320\u6392\u6c34\u7121\u540d\u6a4b", "StationId": "3764400RV113WG01", "TownCode": 10004010, "type": "waterlevel"}, "geometry": {"type": "Point", "coordinates": [120.9508, 24.8713]}}, {"id": "94", "type": "Feature", "properties": {"AdminName": "\u7d93\u6fdf\u90e8\u6c34\u5229\u7f72", "IoWPhysicalQuantityId": "fe02a5b0-e2d7-40a3-9723-0364765f3778", "IoWStationId": "8bbeb0e5-e78c-4a9c-b531-d406ad9ae88b", "Name": "\u9ad8\u9435\u4e00\u865f\u5824\u9632", "StationId": "A130612RVXX01", "TownCode": 10004010, "type": "waterlevel"}, "geometry": {"type": "Point", "coordinates": [121.0263, 24.8059]}}, {"id": "95", "type": "Feature", "properties": {"AdminName": "\u6c34\u5229\u7f72\u6c34\u5229\u7f72", "IoWPhysicalQuantityId": "c1b387ef-654e-45b0-a8ff-81a82939d519", "IoWStationId": "8fed2fb3-80d9-4dad-a28d-9177520ae7e3", "Name": "\u820a\u6e2f\u6a4b", "StationId": "A130600WT130H213", "TownCode": 10004010, "type": "waterlevel"}, "geometry": {"type": "Point", "coordinates": [120.94941, 24.84094]}}, {"id": "96", "type": "Feature", "properties": {"AdminName": "\u7d93\u6fdf\u90e8\u6c34\u5229\u7f72", "IoWPhysicalQuantityId": "6d17111a-61dd-4c05-9fb1-613d969f8cb6", "IoWStationId": "a0756d36-717a-4abc-bf4d-08003b490a08", "Name": "\u9cf3\u5c71\u6eaa\u767d\u5730\u5824\u9632 0K+030", "StationId": "A130612RVXX08", "TownCode": 10004010, "type": "waterlevel"}, "geometry": {"type": "Point", "coordinates": [120.9745, 24.8546]}}, {"id": "97", "type": "Feature", "properties": {"AdminName": "\u65b0\u7af9\u7e23\u653f\u5e9c", "IoWPhysicalQuantityId": "273f6ae4-aec4-4dd8-8569-ecb10744dfe5", "IoWStationId": "a3a985ad-35da-43ea-968a-dece48469599", "Name": "\u5433\u6fc1\u6d41\u6a4b\u6c34\u4f4d\u7ad9", "StationId": "3764400RV0013", "TownCode": 10004010, "type": "waterlevel"}, "geometry": {"type": "Point", "coordinates": [121.009384, 24.832163]}}, {"id": "98", "type": "Feature", "properties": {"AdminName": "\u7d93\u6fdf\u90e8\u6c34\u5229\u7f72\u6c34\u6587\u6280\u8853\u7d44", "IoWPhysicalQuantityId": "14290013-d657-434f-b95f-df803340001e", "IoWStationId": "cc9ee680-b7cc-4b2d-9b2c-3304d465a977", "Name": "\u820a\u6e2f\u6a4b-NB", "StationId": "A130600RV1300021", "TownCode": 10004010, "type": "waterlevel"}, "geometry": {"type": "Point", "coordinates": [120.94941, 24.84094]}}, {"id": "99", "type": "Feature", "properties": {"AdminName": "\u7d93\u6fdf\u90e8\u6c34\u5229\u7f72\u7b2c\u4e8c\u6cb3\u5ddd\u5c40", "IoWPhysicalQuantityId": "f8d2bcd2-f21c-4e1a-a9aa-47f9339f8459", "IoWStationId": "e6568a6c-f45a-4eee-b7a7-24ba84db45b2", "Name": "\u9ad8\u9435\u4e8c\u865f\u5824\u9632", "StationId": "A130612RV0015", "TownCode": 10004010, "type": "waterlevel"}, "geometry": {"type": "Point", "coordinates": [121.02159, 24.808657]}}, {"id": "100", "type": "Feature", "properties": {"AdminName": "\u6c34\u5229\u7f72\u6c34\u5229\u7f72", "IoWPhysicalQuantityId": "3976576a-aac9-4237-a311-d09c172805a6", "IoWStationId": "fef3885c-5ba0-4737-803d-15eeda8925e7", "Name": "\u7d93\u570b\u6a4b", "StationId": "A130600WT130H209", "TownCode": 10004010, "type": "waterlevel"}, "geometry": {"type": "Point", "coordinates": [121.01948, 24.807886]}}, {"id": "101", "type": "Feature", "properties": {"AdminName": "\u65b0\u7af9\u7e23\u653f\u5e9c", "IoWPhysicalQuantityId": "37cb8f61-11e8-48b7-b8ab-6c8138032b52", "IoWStationId": "06fa9318-b110-4f02-90dd-143c27ff1cfb", "Name": "\u8373\u5b50\u57d4\u6392\u6c34\u9678\u8c50\u6a4b", "StationId": "3764400RV113WG02", "TownCode": 10004020, "type": "waterlevel"}, "geometry": {"type": "Point", "coordinates": [121.0766, 24.7681]}}, {"id": "102", "type": "Feature", "properties": {"AdminName": "\u7d93\u6fdf\u90e8\u6c34\u5229\u7f72\u6c34\u6587\u6280\u8853\u7d44", "IoWPhysicalQuantityId": "2f8bbfaa-e0c4-47fc-ad7f-ae2356fa3c65", "IoWStationId": "2ffb46c5-b5e9-4748-940b-24f7df419fc8", "Name": "\u7af9\u6797\u5927\u6a4b(\u5de6\u5cb8)-NB", "StationId": "A130600RV1300018", "TownCode": 10004020, "type": "waterlevel"}, "geometry": {"type": "Point", "coordinates": [121.09358, 24.747667]}}, {"id": "103", "type": "Feature", "properties": {"AdminName": "\u6c34\u5229\u7f72\u6c34\u5229\u7f72", "IoWPhysicalQuantityId": "e7805341-2cb5-4394-b39b-1b852cbbfe2c", "IoWStationId": "49d714d5-1e5f-45b5-a4c5-196f8a8a4b1f", "Name": "\u7af9\u6797\u5927\u6a4b", "StationId": "A130600WT130H208", "TownCode": 10004020, "type": "waterlevel"}, "geometry": {"type": "Point", "coordinates": [121.09359, 24.747663]}}, {"id": "104", "type": "Feature", "properties": {"AdminName": "\u6c34\u5229\u7f72\u6c34\u5229\u7f72", "IoWPhysicalQuantityId": "5bc02438-cde9-4093-801b-47694751a1b7", "IoWStationId": "d8fe409b-4d82-4a15-8d98-0ee5342197da", "Name": "\u7af9\u6797\u5927\u6a4b(\u5de6\u5cb8)", "StationId": "A130600WT130H210", "TownCode": 10004020, "type": "waterlevel"}, "geometry": {"type": "Point", "coordinates": [121.09359, 24.747663]}}, {"id": "105", "type": "Feature", "properties": {"AdminName": "\u7d93\u6fdf\u90e8\u6c34\u5229\u7f72\u6c34\u6587\u6280\u8853\u7d44", "IoWPhysicalQuantityId": "673a12e4-e819-4d54-a9ac-e486adf4a8fc", "IoWStationId": "e87fb109-9dc7-4948-b714-a318ea94cd58", "Name": "\u5fa9\u8208\u6a4b-NB", "StationId": "A130600RV1300019", "TownCode": 10004020, "type": "waterlevel"}, "geometry": {"type": "Point", "coordinates": [121.032906, 24.769611]}}, {"id": "106", "type": "Feature", "properties": {"AdminName": "\u6c34\u5229\u7f72\u6c34\u5229\u7f72", "IoWPhysicalQuantityId": "0aee6500-31b7-4a81-87fe-77e7183c893b", "IoWStationId": "fa130a30-a933-4444-9f41-f4a4ef733ba9", "Name": "\u5fa9\u8208\u6a4b", "StationId": "A130600WT130H211", "TownCode": 10004020, "type": "waterlevel"}, "geometry": {"type": "Point", "coordinates": [121.032906, 24.769611]}}, {"id": "107", "type": "Feature", "properties": {"AdminName": "\u7d93\u6fdf\u90e8\u6c34\u5229\u7f72\u7b2c\u4e8c\u6cb3\u5ddd\u5c40", "IoWPhysicalQuantityId": "88246e76-7005-4169-ae8d-4c890772342c", "IoWStationId": "3d0194e9-00f5-42cf-b1d8-3ea65b8afcd6", "Name": "\u6cf0\u548c\u4e8c\u865f\u5824\u9632", "StationId": "A130612RV0014", "TownCode": 10004030, "type": "waterlevel"}, "geometry": {"type": "Point", "coordinates": [121.02362, 24.845533]}}, {"id": "108", "type": "Feature", "properties": {"AdminName": "\u7d93\u6fdf\u90e8\u6c34\u5229\u7f72\u6c34\u6587\u6280\u8853\u7d44", "IoWPhysicalQuantityId": "8307de1b-afa6-44d9-90f3-928ae8b1e166", "IoWStationId": "8fbeb683-538f-47fc-a249-e9c2266fed36", "Name": "\u65b0\u57d4(2)-NB", "StationId": "A130600RV1290002", "TownCode": 10004030, "type": "waterlevel"}, "geometry": {"type": "Point", "coordinates": [121.06569, 24.825686]}}, {"id": "109", "type": "Feature", "properties": {"AdminName": "\u6c34\u5229\u7f72\u6c34\u5229\u7f72", "IoWPhysicalQuantityId": "1f2d6408-f399-4a70-9f1f-9678f10d84a5", "IoWStationId": "d76f7fb8-7c3c-4d25-8eb5-824b4d19ea4b", "Name": "\u65b0\u57d4(2)", "StationId": "A130600WT129H190", "TownCode": 10004030, "type": "waterlevel"}, "geometry": {"type": "Point", "coordinates": [121.06569, 24.825686]}}, {"id": "110", "type": "Feature", "properties": {"AdminName": "\u7d93\u6fdf\u90e8\u6c34\u5229\u7f72\u6c34\u6587\u6280\u8853\u7d44", "IoWPhysicalQuantityId": "ee7f705d-9d1e-4df4-bc7f-15c13118bfc6", "IoWStationId": "585a24d1-70dc-4b5b-bbfb-a1274bb68702", "Name": "\u95dc\u897f-NB", "StationId": "A130600RV1290004", "TownCode": 10004040, "type": "waterlevel"}, "geometry": {"type": "Point", "coordinates": [121.17717, 24.783531]}}, {"id": "111", "type": "Feature", "properties": {"AdminName": "\u6c34\u5229\u7f72\u6c34\u5229\u7f72", "IoWPhysicalQuantityId": "7150707e-0f58-4957-8402-a726075d3d53", "IoWStationId": "e89655c8-94f6-44d8-b652-bd82181f6dd6", "Name": "\u95dc\u897f", "StationId": "A130600WT129H192", "TownCode": 10004040, "type": "waterlevel"}, "geometry": {"type": "Point", "coordinates": [121.17717, 24.783531]}}, {"id": "112", "type": "Feature", "properties": {"AdminName": "\u7d93\u6fdf\u90e8\u6c34\u5229\u7f72\u6c34\u5229\u898f\u5283\u8a66\u9a57\u6240", "IoWPhysicalQuantityId": "5f4e20fd-4d4f-4798-bc3b-5573793082d3", "IoWStationId": "3723e1e4-6951-4f20-9d2d-b6955f6fc938", "Name": "\u77f3\u6c34\u6703\u6e56\u53e3\u7ad9\u6e56\u53e3\u652f\u6e20\u8207\u8001\u6e56\u53e3\u5206\u6e20\u53d6\u6c34\u9580", "StationId": "A130604RV05003", "TownCode": 10004050, "type": "waterlevel"}, "geometry": {"type": "Point", "coordinates": [121.074, 24.8845]}}, {"id": "113", "type": "Feature", "properties": {"AdminName": "\u884c\u653f\u9662\u8fb2\u696d\u59d4\u54e1\u6703\u77f3\u9580\u8fb2\u7530\u6c34\u5229\u6703\u7ba1\u7406\u7d44", "IoWPhysicalQuantityId": "3fdd5ada-285d-4174-94f9-90d6b3b7a7c0", "IoWStationId": "5c448e2e-1f00-4d56-9eff-dea864755ba9", "Name": "\u77f3\u9580\u5927\u5733\u6e56\u53e3\u76e3\u63a7\u7ad9", "StationId": "A190604AR0112", "TownCode": 10004050, "type": "waterlevel"}, "geometry": {"type": "Point", "coordinates": [121.0871, 24.89051]}}, {"id": "114", "type": "Feature", "properties": {"AdminName": "\u6c34\u5229\u7f72\u6c34\u5229\u7f72", "IoWPhysicalQuantityId": "2949e803-405a-4188-94e5-b22ef0428be9", "IoWStationId": "63abe325-ff3a-4192-b345-1985174fbdd5", "Name": "\u5fb7\u76db\u6a4b", "StationId": "A130600WT1280H00", "TownCode": 10004050, "type": "waterlevel"}, "geometry": {"type": "Point", "coordinates": [121.04494, 24.907845]}}, {"id": "115", "type": "Feature", "properties": {"AdminName": "\u65b0\u7af9\u7e23\u653f\u5e9c", "IoWPhysicalQuantityId": "a49369b4-f9d0-4754-a4b0-e0138bf23623", "IoWStationId": "6a330ec0-8c81-4f2c-a9fd-81515fca5b6a", "Name": "\u6ce2\u7f85\u6c76\u6392\u4fe1\u8208\u6a4b", "StationId": "3764400FL4668E6B", "TownCode": 10004050, "type": "waterlevel"}, "geometry": {"type": "Point", "coordinates": [121.02639, 24.887575]}}, {"id": "116", "type": "Feature", "properties": {"AdminName": "\u7d93\u6fdf\u90e8\u6c34\u5229\u7f72\u6c34\u5229\u898f\u5283\u8a66\u9a57\u6240", "IoWPhysicalQuantityId": "918edcaf-667e-4825-8aa0-89b002c8e6f2", "IoWStationId": "6ae958ac-08f9-4e2e-8679-553b94c9f4e7", "Name": "\u77f3\u6c34\u6703\u6e56\u53e3\u7ad9\u6e56\u53e3\u652f\u6e20\u8207\u54e1\u5c71\u5206\u6e20\u53d6\u6c34\u9580", "StationId": "A130604RV05006", "TownCode": 10004050, "type": "waterlevel"}, "geometry": {"type": "Point", "coordinates": [121.0244, 24.8628]}}, {"id": "117", "type": "Feature", "properties": {"AdminName": "\u7d93\u6fdf\u90e8\u6c34\u5229\u7f72\u6c34\u5229\u898f\u5283\u8a66\u9a57\u6240", "IoWPhysicalQuantityId": "9a8c6037-5a5e-4531-b1ce-10b7cc1f1f5d", "IoWStationId": "9830905e-3204-4ed7-8b8e-a85676fdb588", "Name": "\u77f3\u6c34\u6703\u6e56\u53e3\u7ad9\u6e56\u53e3\u652f\u6e20\u8207\u4e0a\u5317\u52e2\u5206\u6e20\u53d6\u6c34\u9580\u8655", "StationId": "A130604RV05002", "TownCode": 10004050, "type": "waterlevel"}, "geometry": {"type": "Point", "coordinates": [121.0876, 24.8905]}}, {"id": "118", "type": "Feature", "properties": {"AdminName": "\u7d93\u6fdf\u90e8\u6c34\u5229\u7f72\u6c34\u5229\u898f\u5283\u8a66\u9a57\u6240", "IoWPhysicalQuantityId": "f2c42808-a9e8-43b4-8dc2-a813bd5ea383", "IoWStationId": "ab4c1049-9288-4373-8dfa-7fc3b4ee85ea", "Name": "\u77f3\u6c34\u6703\u6e56\u53e3\u7ad9\u6e56\u53e3\u652f\u6e20\u4e2d\u6e38\u6bb5(\u6e56\u53e3\u7ad9\u65c1)", "StationId": "A130604RV05001", "TownCode": 10004050, "type": "waterlevel"}, "geometry": {"type": "Point", "coordinates": [121.0482, 24.8778]}}, {"id": "119", "type": "Feature", "properties": {"AdminName": "\u7d93\u6fdf\u90e8\u6c34\u5229\u7f72\u6c34\u5229\u898f\u5283\u8a66\u9a57\u6240", "IoWPhysicalQuantityId": "00daa3c1-5dbd-4bb9-ad8e-9cfcab6337ed", "IoWStationId": "d364eed4-0c3d-4372-bcfb-71d2ead343f9", "Name": "\u77f3\u6c34\u6703\u6e56\u53e3\u7ad9\u6e56\u53e3\u652f\u6e20\u8207\u4e0b\u5317\u52e2\u5206\u6e20\u53d6\u6c34\u9580", "StationId": "A130604RV05004", "TownCode": 10004050, "type": "waterlevel"}, "geometry": {"type": "Point", "coordinates": [121.061, 24.8868]}}, {"id": "120", "type": "Feature", "properties": {"AdminName": "\u65b0\u7af9\u7e23\u653f\u5e9c", "IoWPhysicalQuantityId": "df828d57-b682-4d14-bfc1-c42575f6d7bb", "IoWStationId": "d7ef0a80-04b2-4c95-9277-48d2ae660e50", "Name": "\u5317\u52e2\u6392\u6c34\u6c11\u751f\u6a4b", "StationId": "3764400FLF11A", "TownCode": 10004050, "type": "waterlevel"}, "geometry": {"type": "Point", "coordinates": [121.045586, 24.899195]}}, {"id": "121", "type": "Feature", "properties": {"AdminName": "\u7d93\u6fdf\u90e8\u6c34\u5229\u7f72\u6c34\u5229\u898f\u5283\u8a66\u9a57\u6240", "IoWPhysicalQuantityId": "ee367f3a-8c2e-48aa-87bf-38755b28e079", "IoWStationId": "e9396e48-9aa0-4152-922b-3d06343f8585", "Name": "\u6843\u6c34\u6703\u6e56\u53e3\u7ad9\u5fb7\u8056\u6eaa\u5de6\u5cb8\u53d6\u6c34\u8def", "StationId": "A130604RV13022", "TownCode": 10004050, "type": "waterlevel"}, "geometry": {"type": "Point", "coordinates": [121.044, 24.9081]}}, {"id": "122", "type": "Feature", "properties": {"AdminName": "\u65b0\u7af9\u7e23\u653f\u5e9c", "IoWPhysicalQuantityId": "8b62e84c-7736-4144-bdb9-9c3a2160520d", "IoWStationId": "f558b8e5-d9fc-4db0-8efa-bbfe295f27eb", "Name": "\u4e2d\u5d19\u6392\u6c34\u5fb7\u9f9c\u6a4b", "StationId": "3764400FL637D640", "TownCode": 10004050, "type": "waterlevel"}, "geometry": {"type": "Point", "coordinates": [121.01487, 24.874825]}}, {"id": "123", "type": "Feature", "properties": {"AdminName": "\u77f3\u9580\u8fb2\u7530\u6c34\u5229\u6703\u77f3\u9580\u7ba1\u7406\u8655", "IoWPhysicalQuantityId": "daf494d1-8e7c-4ba3-8f98-c7ed6478ff2a", "IoWStationId": "f5d86b7d-efc5-4281-a6a6-810d2a5c9284", "Name": "\u6e56 16B \u6c60\u6c34\u4f4d\u611f\u6e2c\u7ad9", "StationId": "A190604AR00034", "TownCode": 10004050, "type": "waterlevel"}, "geometry": {"type": "Point", "coordinates": [121.04487, 24.88283]}}, {"id": "124", "type": "Feature", "properties": {"AdminName": "\u77f3\u9580\u8fb2\u7530\u6c34\u5229\u6703\u77f3\u9580\u7ba1\u7406\u8655", "IoWPhysicalQuantityId": "ebd520d7-eda6-40a6-92ec-2909d51595b2", "IoWStationId": "fae1c39e-5ce0-4f27-b636-0cf88186e73c", "Name": "\u7e5e 64 \u6c60\u6c34\u4f4d\u611f\u6e2c\u7ad9", "StationId": "A190604AR00033", "TownCode": 10004050, "type": "waterlevel"}, "geometry": {"type": "Point", "coordinates": [121.075226, 24.8957]}}, {"id": "125", "type": "Feature", "properties": {"AdminName": "\u7d93\u6fdf\u90e8\u6c34\u5229\u7f72\u6c34\u5229\u898f\u5283\u8a66\u9a57\u6240", "IoWPhysicalQuantityId": "4ec55bd5-db1f-43a1-b57f-739b846f926e", "IoWStationId": "6c64f254-95e9-4cfd-8b09-6cf5982b783a", "Name": "\u6843\u6c34\u6703\u6e56\u53e3\u7ad9\u5149\u5fa9\u57338\u652f\u7dda\u672b\u7aef", "StationId": "A130604RV13025", "TownCode": 10004060, "type": "waterlevel"}, "geometry": {"type": "Point", "coordinates": [120.9845, 24.9264]}}, {"id": "126", "type": "Feature", "properties": {"AdminName": "\u65b0\u7af9\u7e23\u653f\u5e9c", "IoWPhysicalQuantityId": "6416ea1d-7c09-4109-8a45-a8728519f0d5", "IoWStationId": "77079973-4797-44da-bb66-5e72c5787322", "Name": "\u6c60\u548c\u6a4b\u6c34\u4f4d\u7ad9", "StationId": "3764400RV0010", "TownCode": 10004060, "type": "waterlevel"}, "geometry": {"type": "Point", "coordinates": [120.97603, 24.908022]}}, {"id": "127", "type": "Feature", "properties": {"AdminName": "\u65b0\u7af9\u7e23\u653f\u5e9c", "IoWPhysicalQuantityId": "022fc967-8f21-4ae1-9c4a-87efc1f765c9", "IoWStationId": "b846c99a-f885-408b-8313-4e6cb249bf12", "Name": "\u65b0\u8c50\u9109\u4e2d\u5c71\u6a4b", "StationId": "3764400FL6D52", "TownCode": 10004060, "type": "waterlevel"}, "geometry": {"type": "Point", "coordinates": [120.99584, 24.907038]}}, {"id": "128", "type": "Feature", "properties": {"AdminName": "\u65b0\u7af9\u7e23\u653f\u5e9c", "IoWPhysicalQuantityId": "b27e2c33-4771-4f4e-91bd-e401b08d85af", "IoWStationId": "cad1dd5e-27ff-4ec4-be65-ca2c88b32523", "Name": "\u4e0a\u5751\u6392\u6c34\u7121\u540d\u6a4b\u9cf3\u84ee\u5bae", "StationId": "3764400RV0015", "TownCode": 10004060, "type": "waterlevel"}, "geometry": {"type": "Point", "coordinates": [120.99373, 24.871328]}}, {"id": "129", "type": "Feature", "properties": {"AdminName": "\u65b0\u7af9\u7e23\u653f\u5e9c", "IoWPhysicalQuantityId": "f5978b56-e560-423c-9efe-d35fe7a008c5", "IoWStationId": "2ba8fb8c-9989-4850-9796-67a55e262812", "Name": "\u805a\u5fb7\u6a4b", "StationId": "3764400FL0DEA", "TownCode": 10004070, "type": "waterlevel"}, "geometry": {"type": "Point", "coordinates": [121.07853, 24.77372]}}, {"id": "130", "type": "Feature", "properties": {"AdminName": "\u6c34\u5229\u7f72\u6c34\u5229\u7f72", "IoWPhysicalQuantityId": "2fc01f65-d249-407d-ab1b-389a4c25a1a3", "IoWStationId": "5cf70c39-2d80-4143-9b8e-3ee204535a14", "Name": "\u4e0a\u576a", "StationId": "A130600WT130H206", "TownCode": 10004080, "type": "waterlevel"}, "geometry": {"type": "Point", "coordinates": [121.114296, 24.669035]}}, {"id": "131", "type": "Feature", "properties": {"AdminName": "\u7d93\u6fdf\u90e8\u6c34\u5229\u7f72\u6c34\u6587\u6280\u8853\u7d44", "IoWPhysicalQuantityId": "246e731f-d381-49c2-8ef6-239f5936785f", "IoWStationId": "682b09c7-ec3f-487e-ac45-fdcc73f7d7c1", "Name": "\u5167\u7063-NB", "StationId": "A130600RV1300013", "TownCode": 10004080, "type": "waterlevel"}, "geometry": {"type": "Point", "coordinates": [121.18119, 24.702864]}}, {"id": "132", "type": "Feature", "properties": {"AdminName": "\u6c34\u5229\u7f72\u6c34\u5229\u7f72", "IoWPhysicalQuantityId": "b1d35788-7953-4892-8655-944b099143b7", "IoWStationId": "b2b2d518-f47f-4bde-a119-c1e7cc69208c", "Name": "\u5167\u7063", "StationId": "A130600WT130H205", "TownCode": 10004080, "type": "waterlevel"}, "geometry": {"type": "Point", "coordinates": [121.18119, 24.702864]}}, {"id": "133", "type": "Feature", "properties": {"AdminName": "\u65b0\u7af9\u7e23\u653f\u5e9c", "IoWPhysicalQuantityId": "6d91c03b-cad7-42b8-bc36-620be8e957f7", "IoWStationId": "df31bb7c-10cf-42db-b26a-0ba6fad791ca", "Name": "\u96d9\u6eaa\u6a4b\u6c34\u4f4d\u7ad9", "StationId": "3764400RV0018", "TownCode": 10004100, "type": "waterlevel"}, "geometry": {"type": "Point", "coordinates": [120.989334, 24.764347]}}, {"id": "134", "type": "Feature", "properties": {"AdminName": "\u6c34\u5229\u7f72\u6c34\u5229\u7f72", "IoWPhysicalQuantityId": "a4c92382-0b94-4276-909c-9f3bb4e9131d", "IoWStationId": "f55ad91c-62b0-4fe8-b5b3-783cd0950654", "Name": "\u65b0\u8c50\u6a4b", "StationId": "A130600WT132H219", "TownCode": 10004100, "type": "waterlevel"}, "geometry": {"type": "Point", "coordinates": [120.9652, 24.731644]}}, {"id": "135", "type": "Feature", "properties": {"AdminName": "\u6c34\u5229\u7f72\u6c34\u5229\u7f72", "IoWPhysicalQuantityId": "75e21085-dbf0-47db-875b-9b28e275600a", "IoWStationId": "8b103de9-1dfe-498b-a6d6-6da6991f4355", "Name": "\u9285\u5bcc\u5927\u6a4b", "StationId": "A130600RV134H54", "TownCode": 10004110, "type": "waterlevel"}, "geometry": {"type": "Point", "coordinates": [120.98179, 24.67107]}}, {"id": "136", "type": "Feature", "properties": {"AdminName": "\u6c34\u5229\u7f72\u6c34\u5229\u7f72", "IoWPhysicalQuantityId": "b7ae69d4-1536-4554-89bd-2cb75065be3d", "IoWStationId": "66f7746d-24cb-48e4-a8a5-cf6426de4a09", "Name": "\u4e94\u5cf0\u5927\u6a4b", "StationId": "A130600WT130H212", "TownCode": 10004130, "type": "waterlevel"}, "geometry": {"type": "Point", "coordinates": [121.12372, 24.644388]}}, {"id": "137", "type": "Feature", "properties": {"AdminName": "\u7d93\u6fdf\u90e8\u6c34\u5229\u7f72\u6c34\u6587\u6280\u8853\u7d44", "IoWPhysicalQuantityId": "77a3baff-b2f8-42db-836d-b3c946372f50", "IoWStationId": "cd4c9e80-6aa3-42c3-b75b-26166790c8dc", "Name": "\u4e94\u5cf0\u5927\u6a4b-NB", "StationId": "A130600RV1300020", "TownCode": 10004130, "type": "waterlevel"}, "geometry": {"type": "Point", "coordinates": [121.12372, 24.644388]}}, {"id": "138", "type": "Feature", "properties": {"AdminName": "\u6c34\u5229\u7f72\u6c34\u5229\u7f72", "IoWPhysicalQuantityId": "a657b840-5f39-4318-bc9e-cad3b0c2b81c", "IoWStationId": "0f101857-d2be-45aa-afc2-ba98cf5f5b04", "Name": "\u7389\u6e05\u5927\u6a4b", "StationId": "A130600WT135H245", "TownCode": 10005010, "type": "waterlevel"}, "geometry": {"type": "Point", "coordinates": [120.83793, 24.561676]}}, {"id": "139", "type": "Feature", "properties": {"AdminName": "\u6c34\u5229\u7f72\u6c34\u5229\u7f72", "IoWPhysicalQuantityId": "142c7942-256d-43a7-9e05-1d856e3e6cc7", "IoWStationId": "28579e68-7c75-4ec2-8ca0-1b89a7354b2d", "Name": "\u5317\u52e2\u5927\u6a4b\u5de6\u5cb8", "StationId": "A130600WT135H238", "TownCode": 10005010, "type": "waterlevel"}, "geometry": {"type": "Point", "coordinates": [120.8255, 24.594887]}}, {"id": "140", "type": "Feature", "properties": {"AdminName": "\u82d7\u6817\u7e23\u653f\u5e9c\u6c34\u5229\u8655", "IoWPhysicalQuantityId": "4fa6abb8-6165-4197-9c2a-ef63b63cbb28", "IoWStationId": "b2bce5fb-3c8c-4ba2-9b4d-5ac19557ffde", "Name": "\u65b0\u6771\u6a4b", "StationId": "3764500RVTL2XD", "TownCode": 10005010, "type": "waterlevel"}, "geometry": {"type": "Point", "coordinates": [120.81943, 24.551825]}}, {"id": "141", "type": "Feature", "properties": {"AdminName": "\u7d93\u6fdf\u90e8\u6c34\u5229\u7f72\u6c34\u6587\u6280\u8853\u7d44", "IoWPhysicalQuantityId": "f412f84b-7b96-485f-b206-8c633d4c9815", "IoWStationId": "bfcf0c06-497f-4051-b420-2f5a03ac9f90", "Name": "\u5317\u52e2\u5927\u6a4b\u5de6\u5cb8-NB", "StationId": "A130600RV1350012", "TownCode": 10005010, "type": "waterlevel"}, "geometry": {"type": "Point", "coordinates": [120.8255, 24.594887]}}, {"id": "142", "type": "Feature", "properties": {"AdminName": "\u82d7\u6817\u7e23\u653f\u5e9c", "IoWPhysicalQuantityId": "69fb2689-79bb-4abb-be0c-79831a460691", "IoWStationId": "32889019-7c2d-40ff-8ad9-bd02cfa59aef", "Name": "\u6771\u5c71\u6a4b", "StationId": "3764500FL962657D", "TownCode": 10005020, "type": "waterlevel"}, "geometry": {"type": "Point", "coordinates": [120.65727, 24.44237]}}, {"id": "143", "type": "Feature", "properties": {"AdminName": "\u82d7\u6817\u7e23\u653f\u5e9c\u6c34\u5229\u8655", "IoWPhysicalQuantityId": "60b5cf25-c932-4904-9ec1-2d6b6ce4f233", "IoWStationId": "42aecea8-b2b9-4d4a-bb57-95a625d2a87d", "Name": "\u5357\u52e2\u6a4b", "StationId": "3764500RVPL3NS", "TownCode": 10005020, "type": "waterlevel"}, "geometry": {"type": "Point", "coordinates": [120.70158, 24.394697]}}, {"id": "144", "type": "Feature", "properties": {"AdminName": "\u82d7\u6817\u7e23\u653f\u5e9c\u6c34\u5229\u8655", "IoWPhysicalQuantityId": "1b4307ee-25bb-452d-9248-d888cf9da3ab", "IoWStationId": "d420da52-6bb4-4a51-82b0-9d023a583b74", "Name": "\u9752\u57d4\u5927\u6a4b", "StationId": "3764500RVRA00002", "TownCode": 10005020, "type": "waterlevel"}, "geometry": {"type": "Point", "coordinates": [120.68802, 24.422922]}}, {"id": "145", "type": "Feature", "properties": {"AdminName": "\u82d7\u6817\u7e23\u653f\u5e9c", "IoWPhysicalQuantityId": "860c199c-ced6-4f9b-ae0a-065d4b1d8ce9", "IoWStationId": "86955e6f-184a-4992-8c97-35a24d441966", "Name": "\u6885\u5357\u5927\u6a4b", "StationId": "3764500FLA53CBFF", "TownCode": 10005030, "type": "waterlevel"}, "geometry": {"type": "Point", "coordinates": [120.69768, 24.474129]}}, {"id": "146", "type": "Feature", "properties": {"AdminName": "\u6c34\u5229\u7f72\u6c34\u5229\u7f72", "IoWPhysicalQuantityId": "48cf0616-768a-46c0-b03d-0180e469a460", "IoWStationId": "50c42247-447c-4cab-bb48-e59f3c9c9384", "Name": "\u7384\u5bf6\u5927\u6a4b", "StationId": "A130600RV134H55", "TownCode": 10005040, "type": "waterlevel"}, "geometry": {"type": "Point", "coordinates": [120.83512, 24.66964]}}, {"id": "147", "type": "Feature", "properties": {"AdminName": "\u7d93\u6fdf\u90e8\u6c34\u5229\u7f72", "IoWPhysicalQuantityId": "5ce35029-e396-4e0f-b88f-1d010c48f234", "IoWStationId": "e2b10a25-6f4e-44bc-9072-384ca1a9da1e", "Name": "\u4e2d\u6e2f\u6eaa\u6d77\u53e3\u5824\u9632", "StationId": "A130612RVXX04", "TownCode": 10005040, "type": "waterlevel"}, "geometry": {"type": "Point", "coordinates": [120.8609, 24.6665]}}, {"id": "148", "type": "Feature", "properties": {"AdminName": "\u82d7\u6817\u7e23\u653f\u5e9c\u6c34\u5229\u8655", "IoWPhysicalQuantityId": "7cc263d4-773a-42b8-9dc1-8a64da3aaf03", "IoWStationId": "f21b11d2-e03f-4eb8-a350-6fa297b14af0", "Name": "\u9f8d\u8056\u6a4b", "StationId": "3764500RVRA00004", "TownCode": 10005040, "type": "waterlevel"}, "geometry": {"type": "Point", "coordinates": [120.87203, 24.69772]}}, {"id": "149", "type": "Feature", "properties": {"AdminName": "\u7d93\u6fdf\u90e8\u6c34\u5229\u7f72\u6c34\u6587\u6280\u8853\u7d44", "IoWPhysicalQuantityId": "12efff5b-82eb-4d2a-a2af-4723dd18eaca", "IoWStationId": "0942368c-c882-4232-8c78-b7240fe212a7", "Name": "\u5c16\u5c71\u5927\u6a4b-NB", "StationId": "A130600RV1340010", "TownCode": 10005050, "type": "waterlevel"}, "geometry": {"type": "Point", "coordinates": [120.882675, 24.666862]}}, {"id": "150", "type": "Feature", "properties": {"AdminName": "\u7d93\u6fdf\u90e8\u6c34\u5229\u7f72\u6c34\u6587\u6280\u8853\u7d44", "IoWPhysicalQuantityId": "aa20ed80-a811-4933-935c-b7b619fe6574", "IoWStationId": "4b4734eb-0293-4fc6-a208-4b96ce36502d", "Name": "\u5e73\u5b89\u6a4b-NB", "StationId": "A130600RV1340008", "TownCode": 10005050, "type": "waterlevel"}, "geometry": {"type": "Point", "coordinates": [120.9492, 24.675734]}}, {"id": "151", "type": "Feature", "properties": {"AdminName": "\u6c34\u5229\u7f72\u6c34\u5229\u7f72", "IoWPhysicalQuantityId": "01075fdd-6dd1-490b-b305-9155207c698f", "IoWStationId": "9a3d752f-b233-4cd0-a2c4-c4be3167f316", "Name": "\u5c16\u5c71\u5927\u6a4b", "StationId": "A130600WT134H222", "TownCode": 10005050, "type": "waterlevel"}, "geometry": {"type": "Point", "coordinates": [120.88279, 24.666939]}}, {"id": "152", "type": "Feature", "properties": {"AdminName": "\u82d7\u6817\u7e23\u653f\u5e9c", "IoWPhysicalQuantityId": "496a1127-55fc-4a76-af07-dec22624d581", "IoWStationId": "a0628c41-947f-4653-89cb-da70cf0de8cd", "Name": "\u9f8d\u9cf3\u6392\u6c34\u5206\u6d2a\u5f8c", "StationId": "3764500FLAE583F8", "TownCode": 10005050, "type": "waterlevel"}, "geometry": {"type": "Point", "coordinates": [120.924965, 24.688046]}}, {"id": "153", "type": "Feature", "properties": {"AdminName": "\u6c34\u5229\u7f72\u6c34\u5229\u7f72", "IoWPhysicalQuantityId": "0fb61d5a-8341-47a4-93d9-2d1b9f4800fa", "IoWStationId": "b68163de-935d-4b40-894e-05342578c062", "Name": "\u5e73\u5b89\u6a4b", "StationId": "A130600WT134H220", "TownCode": 10005050, "type": "waterlevel"}, "geometry": {"type": "Point", "coordinates": [120.9492, 24.675734]}}, {"id": "154", "type": "Feature", "properties": {"AdminName": "\u6c34\u5229\u7f72\u6c34\u5229\u7f72", "IoWPhysicalQuantityId": "9adc71da-fc6b-4f76-b6fe-fce4731bd65f", "IoWStationId": "e5a1423e-d4b5-44ce-b98b-6f6171d0d530", "Name": "\u6771\u8208\u6a4b", "StationId": "A130600WT134H223", "TownCode": 10005050, "type": "waterlevel"}, "geometry": {"type": "Point", "coordinates": [120.907295, 24.681112]}}, {"id": "155", "type": "Feature", "properties": {"AdminName": "\u82d7\u6817\u7e23\u653f\u5e9c\u6c34\u5229\u8655", "IoWPhysicalQuantityId": "a3e7cf17-897b-4672-a726-4fa36fbaf66b", "IoWStationId": "f909f196-d714-43d0-a804-f0a6bb7d66c5", "Name": "\u5b89\u548c\u6a4b", "StationId": "3764500RVRA00005", "TownCode": 10005050, "type": "waterlevel"}, "geometry": {"type": "Point", "coordinates": [120.9016, 24.70227]}}, {"id": "156", "type": "Feature", "properties": {"AdminName": "\u6c34\u5229\u7f72\u6c34\u5229\u7f72", "IoWPhysicalQuantityId": "d5cd83f9-ed88-40cb-b0f7-5f835d98e6c5", "IoWStationId": "0de72790-a977-463f-8500-1c16c5ce3623", "Name": "\u5f8c\u9f8d\u6eaa\u6a4b", "StationId": "A130600WT135H251", "TownCode": 10005060, "type": "waterlevel"}, "geometry": {"type": "Point", "coordinates": [120.78385, 24.607908]}}, {"id": "157", "type": "Feature", "properties": {"AdminName": "\u7d93\u6fdf\u90e8\u6c34\u5229\u7f72\u6c34\u6587\u6280\u8853\u7d44", "IoWPhysicalQuantityId": "76edaa39-1712-44b2-975b-723ed639d980", "IoWStationId": "39707790-e7cb-4906-ba97-f83ab11d52b0", "Name": "\u89c0\u6d77\u5927\u6a4b-NB", "StationId": "A130600RV1350031", "TownCode": 10005060, "type": "waterlevel"}, "geometry": {"type": "Point", "coordinates": [120.763245, 24.614986]}}, {"id": "158", "type": "Feature", "properties": {"AdminName": "\u7d93\u6fdf\u90e8\u6c34\u5229\u7f72\u7b2c\u4e8c\u6cb3\u5ddd\u5c40", "IoWPhysicalQuantityId": "517b65cd-551e-4000-9971-1010bf7a7efb", "IoWStationId": "77435872-654a-41bd-a1f2-a4996247fd94", "Name": "\u5f8c\u9f8d\u5824\u9632", "StationId": "A130612RV0016", "TownCode": 10005060, "type": "waterlevel"}, "geometry": {"type": "Point", "coordinates": [120.75759, 24.622873]}}, {"id": "159", "type": "Feature", "properties": {"AdminName": "\u6c34\u5229\u7f72\u6c34\u5229\u7f72", "IoWPhysicalQuantityId": "69068222-c4b2-45cb-b704-511f578b0e13", "IoWStationId": "a0f73554-1125-4d14-a767-4323a3560039", "Name": "\u89c0\u6d77\u5927\u6a4b", "StationId": "A130600RV135H57", "TownCode": 10005060, "type": "waterlevel"}, "geometry": {"type": "Point", "coordinates": [120.763245, 24.614986]}}, {"id": "160", "type": "Feature", "properties": {"AdminName": "\u7d93\u6fdf\u90e8\u6c34\u5229\u7f72", "IoWPhysicalQuantityId": "0d62f288-bbf5-4dcf-837d-080009689c26", "IoWStationId": "db86d5ae-eff7-46b9-b78b-2fecf46d6ec6", "Name": "\u5f8c\u9f8d\u6eaa\u5f8c\u9f8d\u5824\u9632 1K+000", "StationId": "A130612RVXX05", "TownCode": 10005060, "type": "waterlevel"}, "geometry": {"type": "Point", "coordinates": [120.7592, 24.6224]}}, {"id": "161", "type": "Feature", "properties": {"AdminName": "\u6c34\u5229\u7f72\u6c34\u5229\u7f72", "IoWPhysicalQuantityId": "46f840e4-f7fb-465a-a2b0-d01eaf83f186", "IoWStationId": "42fde1c3-7694-4fde-88cf-49796fa00a08", "Name": "\u5353\u862d", "StationId": "A130600WT1400H02", "TownCode": 10005070, "type": "waterlevel"}, "geometry": {"type": "Point", "coordinates": [120.82442, 24.305162]}}, {"id": "162", "type": "Feature", "properties": {"AdminName": "\u6c34\u5229\u7f72\u6c34\u5229\u7f72", "IoWPhysicalQuantityId": "edf56180-acb4-455f-b81f-e4a7ae33f225", "IoWStationId": "598bba90-c499-4fed-8ab6-34bec1c3a888", "Name": "\u666f\u5c71", "StationId": "A130600WT140H271", "TownCode": 10005070, "type": "waterlevel"}, "geometry": {"type": "Point", "coordinates": [120.8581, 24.347464]}}, {"id": "163", "type": "Feature", "properties": {"AdminName": "\u7d93\u6fdf\u90e8\u6c34\u5229\u7f72\u6c34\u6587\u6280\u8853\u7d44", "IoWPhysicalQuantityId": "dab9aec2-cb27-409e-9688-fcfd83dca94a", "IoWStationId": "de7096fc-9bd3-4866-9789-d59b96fbe845", "Name": "\u5353\u862d-NB", "StationId": "A130600RV1400020", "TownCode": 10005070, "type": "waterlevel"}, "geometry": {"type": "Point", "coordinates": [120.82442, 24.305162]}}, {"id": "164", "type": "Feature", "properties": {"AdminName": "\u6c34\u5229\u7f72\u6c34\u5229\u7f72", "IoWPhysicalQuantityId": "b75815cf-ea1d-4ce5-850d-1d93d78920e6", "IoWStationId": "024a1b4e-0dec-4633-868a-cef1721e6775", "Name": "\u793e\u5bee\u89d2\u6a4b", "StationId": "A130600WT135H244", "TownCode": 10005080, "type": "waterlevel"}, "geometry": {"type": "Point", "coordinates": [120.87881, 24.428446]}}, {"id": "165", "type": "Feature", "properties": {"AdminName": "\u6c34\u5229\u7f72\u6c34\u5229\u7f72", "IoWPhysicalQuantityId": "7a1ed91d-1a67-43cb-b578-095fe62b2151", "IoWStationId": "114eb91b-d13a-4ed2-99ab-c9ebdad6f521", "Name": "\u9806\u7fa9\u6a4b", "StationId": "A130600WT135H250", "TownCode": 10005080, "type": "waterlevel"}, "geometry": {"type": "Point", "coordinates": [120.86816, 24.398922]}}, {"id": "166", "type": "Feature", "properties": {"AdminName": "\u6c34\u5229\u7f72\u6c34\u5229\u7f72", "IoWPhysicalQuantityId": "91dd5bed-9440-4663-81a0-cf9b137c5c23", "IoWStationId": "25a6b696-d2bd-4859-84f7-3d9f6a78c8fe", "Name": "\u5f7c\u5cb8\u6a4b", "StationId": "A130600WT135H246", "TownCode": 10005080, "type": "waterlevel"}, "geometry": {"type": "Point", "coordinates": [120.873955, 24.451864]}}, {"id": "167", "type": "Feature", "properties": {"AdminName": "\u7d93\u6fdf\u90e8\u6c34\u5229\u7f72\u6c34\u6587\u6280\u8853\u7d44", "IoWPhysicalQuantityId": "8d74b4e7-cce1-4978-9153-f418b9b304cf", "IoWStationId": "5845ccc3-cc7e-422a-a14b-21d35d36a3ce", "Name": "\u793e\u5bee\u89d2\u6a4b-NB", "StationId": "A130600RV1350018", "TownCode": 10005080, "type": "waterlevel"}, "geometry": {"type": "Point", "coordinates": [120.87881, 24.428446]}}, {"id": "168", "type": "Feature", "properties": {"AdminName": "\u7d93\u6fdf\u90e8\u6c34\u5229\u7f72\u6c34\u6587\u6280\u8853\u7d44", "IoWPhysicalQuantityId": "83d5ea12-a893-40d3-a5f4-982d0f7fae46", "IoWStationId": "a83c1250-b0be-47dd-b3b3-de69966b57f3", "Name": "\u606d\u656c\u6a4b-NB", "StationId": "A130600RV1350017", "TownCode": 10005080, "type": "waterlevel"}, "geometry": {"type": "Point", "coordinates": [120.86528, 24.428543]}}, {"id": "169", "type": "Feature", "properties": {"AdminName": "\u6c34\u5229\u7f72\u6c34\u5229\u7f72", "IoWPhysicalQuantityId": "58a739c1-6e4f-4bdf-a96c-46c75666c22f", "IoWStationId": "b62422e6-229b-45fa-902e-e27b5fd98d0b", "Name": "\u5927\u7aa9\u6a4b", "StationId": "A130600WT135H249", "TownCode": 10005080, "type": "waterlevel"}, "geometry": {"type": "Point", "coordinates": [120.86585, 24.411686]}}, {"id": "170", "type": "Feature", "properties": {"AdminName": "\u6c34\u5229\u7f72\u6c34\u5229\u7f72", "IoWPhysicalQuantityId": "9857cb58-2ea8-49c2-a89f-d6e0a4276849", "IoWStationId": "bbd6a064-2dd3-43b4-9362-d10496da37ce", "Name": "\u606d\u656c\u6a4b", "StationId": "A130600WT135H243", "TownCode": 10005080, "type": "waterlevel"}, "geometry": {"type": "Point", "coordinates": [120.86528, 24.428543]}}, {"id": "171", "type": "Feature", "properties": {"AdminName": "\u6c34\u5229\u7f72\u6c34\u5229\u7f72", "IoWPhysicalQuantityId": "bc8b05ea-91f2-428a-9fb0-ce900e5b6592", "IoWStationId": "dc683219-e41d-4f4f-bbc1-df9eb2da7da8", "Name": "\u74b0\u6e56\u6a4b", "StationId": "A130600WT135H248", "TownCode": 10005080, "type": "waterlevel"}, "geometry": {"type": "Point", "coordinates": [120.86273, 24.420658]}}, {"id": "172", "type": "Feature", "properties": {"AdminName": "\u6c34\u5229\u7f72\u6c34\u5229\u7f72", "IoWPhysicalQuantityId": "91e96fd5-7180-4873-a910-ef91674cd19e", "IoWStationId": "3728669a-eab7-4f2d-b7c6-b88f1f9ad611", "Name": "\u6253\u9e7f\u5751", "StationId": "A130600WT135H227", "TownCode": 10005090, "type": "waterlevel"}, "geometry": {"type": "Point", "coordinates": [120.86193, 24.46219]}}, {"id": "173", "type": "Feature", "properties": {"AdminName": "\u6c34\u5229\u7f72\u6c34\u5229\u7f72", "IoWPhysicalQuantityId": "1cb9a1c4-2bdb-4590-a173-f28edf0793f5", "IoWStationId": "c48e5bdc-552a-4373-ba8d-84b669d9faa2", "Name": "\u51fa\u7926\u5751\u6a4b", "StationId": "A130600WT135H255", "TownCode": 10005090, "type": "waterlevel"}, "geometry": {"type": "Point", "coordinates": [120.85332, 24.46332]}}, {"id": "174", "type": "Feature", "properties": {"AdminName": "\u7d93\u6fdf\u90e8\u6c34\u5229\u7f72\u6c34\u6587\u6280\u8853\u7d44", "IoWPhysicalQuantityId": "b40f3a8e-a8b4-429e-89b8-846758dccbbb", "IoWStationId": "62d3879e-2fa7-4928-b139-160803ae5dcb", "Name": "\u4e2d\u5e73-NB", "StationId": "A130600RV1350016", "TownCode": 10005100, "type": "waterlevel"}, "geometry": {"type": "Point", "coordinates": [120.79481, 24.493916]}}, {"id": "175", "type": "Feature", "properties": {"AdminName": "\u82d7\u6817\u7e23\u653f\u5e9c", "IoWPhysicalQuantityId": "b9f5c964-ba1a-4d98-b06d-8b37b5b6a654", "IoWStationId": "94d31c56-a19e-48f3-98b7-0951a515e20b", "Name": "\u7af9\u68ee\u6a4b", "StationId": "3764500FLA1D9B2C", "TownCode": 10005100, "type": "waterlevel"}, "geometry": {"type": "Point", "coordinates": [120.78083, 24.49427]}}, {"id": "176", "type": "Feature", "properties": {"AdminName": "\u6c34\u5229\u7f72\u6c34\u5229\u7f72", "IoWPhysicalQuantityId": "9d269980-9bcb-42fe-9f89-632308e8aa0f", "IoWStationId": "9b22d53f-0b83-4f38-a4a3-95775ce5d494", "Name": "\u6cf0\u9686\u6a4b", "StationId": "A130600WT135H253", "TownCode": 10005100, "type": "waterlevel"}, "geometry": {"type": "Point", "coordinates": [120.81539, 24.454142]}}, {"id": "177", "type": "Feature", "properties": {"AdminName": "\u6c34\u5229\u7f72\u6c34\u5229\u7f72", "IoWPhysicalQuantityId": "47fcc2dd-0e38-414a-bd51-8f9476d713b2", "IoWStationId": "a498be11-a1d0-46dd-9297-ef20913df7bb", "Name": "\u4e2d\u5e73", "StationId": "A130600WT135H242", "TownCode": 10005100, "type": "waterlevel"}, "geometry": {"type": "Point", "coordinates": [120.79481, 24.493916]}}, {"id": "178", "type": "Feature", "properties": {"AdminName": "\u6c34\u5229\u7f72\u6c34\u5229\u7f72", "IoWPhysicalQuantityId": "3d0dc983-a2cb-486f-96fd-aea45f840e81", "IoWStationId": "536d2f63-98d1-4d2b-8a1e-a03a57ef38ae", "Name": "\u6c38\u8208\u6a4b", "StationId": "A130600WT134H221", "TownCode": 10005110, "type": "waterlevel"}, "geometry": {"type": "Point", "coordinates": [121.00583, 24.61766]}}, {"id": "179", "type": "Feature", "properties": {"AdminName": "\u6c34\u5229\u7f72\u6c34\u5229\u7f72", "IoWPhysicalQuantityId": "f2f3e3b3-364e-423f-9f92-c06b6fbc8be6", "IoWStationId": "5e333ed3-aae9-4d79-8b09-fe7e69155b8e", "Name": "\u6771\u6c5f\u6a4b", "StationId": "A130600WT134H224", "TownCode": 10005110, "type": "waterlevel"}, "geometry": {"type": "Point", "coordinates": [121.018074, 24.597534]}}, {"id": "180", "type": "Feature", "properties": {"AdminName": "\u7d93\u6fdf\u90e8\u6c34\u5229\u7f72\u6c34\u6587\u6280\u8853\u7d44", "IoWPhysicalQuantityId": "24fc5ac4-5af7-458c-878a-cd0055041c1d", "IoWStationId": "8fc516a2-6336-4600-95c5-c541e2fb35b5", "Name": "\u6c38\u8208\u6a4b-NB", "StationId": "A130600RV1340009", "TownCode": 10005110, "type": "waterlevel"}, "geometry": {"type": "Point", "coordinates": [121.00583, 24.61766]}}, {"id": "181", "type": "Feature", "properties": {"AdminName": "\u7d93\u6fdf\u90e8\u6c34\u5229\u7f72\u6c34\u6587\u6280\u8853\u7d44", "IoWPhysicalQuantityId": "1d215097-8ca0-4e2f-a52c-ac807e41567a", "IoWStationId": "9d504c15-0626-4d80-8fa9-d55b219b3854", "Name": "\u6771\u6c5f\u6a4b-NB", "StationId": "A130600RV1340012", "TownCode": 10005110, "type": "waterlevel"}, "geometry": {"type": "Point", "coordinates": [121.018074, 24.597534]}}, {"id": "182", "type": "Feature", "properties": {"AdminName": "\u6c34\u5229\u7f72\u6c34\u5229\u7f72", "IoWPhysicalQuantityId": "ecddc9c7-2ca2-4dbf-a063-dca73b2c1569", "IoWStationId": "b2a8bbe7-4b64-422a-a5ef-60bc2c76eb5f", "Name": "\u798f\u5357\u6a4b", "StationId": "A130600WT134H225", "TownCode": 10005110, "type": "waterlevel"}, "geometry": {"type": "Point", "coordinates": [120.99036, 24.58052]}}, {"id": "183", "type": "Feature", "properties": {"AdminName": "\u6c34\u5229\u7f72\u6c34\u5229\u7f72", "IoWPhysicalQuantityId": "db1046ce-7b3f-4521-861e-3a9ae3a6a171", "IoWStationId": "3ddbf68d-859c-4222-870f-bd478bf33fe8", "Name": "\u8001\u7530\u5bee\u6a4b", "StationId": "A130600WT135H252", "TownCode": 10005120, "type": "waterlevel"}, "geometry": {"type": "Point", "coordinates": [120.88147, 24.58566]}}, {"id": "184", "type": "Feature", "properties": {"AdminName": "\u7d93\u6fdf\u90e8\u6c34\u5229\u7f72\u6c34\u6587\u6280\u8853\u7d44", "IoWPhysicalQuantityId": "61285249-02ab-4261-8615-dd66e908d08a", "IoWStationId": "505a95ec-35f2-4ac8-a0b5-79352b0a6ce2", "Name": "\u660e\u5fb7\u56db\u865f\u6a4b-NB", "StationId": "A130600RV1350030", "TownCode": 10005120, "type": "waterlevel"}, "geometry": {"type": "Point", "coordinates": [120.91912, 24.588243]}}, {"id": "185", "type": "Feature", "properties": {"AdminName": "\u6c34\u5229\u7f72\u6c34\u5229\u7f72", "IoWPhysicalQuantityId": "1d93ebea-581b-4991-84ee-35bcc4e705f8", "IoWStationId": "e7fb4eba-6117-46fd-bd4f-b5ea053ee9c4", "Name": "\u660e\u5fb7\u56db\u865f\u6a4b", "StationId": "A130600RV135H56", "TownCode": 10005120, "type": "waterlevel"}, "geometry": {"type": "Point", "coordinates": [120.91914, 24.588272]}}, {"id": "186", "type": "Feature", "properties": {"AdminName": "\u82d7\u6817\u7e23\u653f\u5e9c\u6c34\u5229\u8655", "IoWPhysicalQuantityId": "b4cc74bd-40ea-4518-ab21-9a40336ff22d", "IoWStationId": "6cf99401-b07b-4ab4-871d-0e9ecf28bf81", "Name": "\u98db\u9f8d\u6a4b", "StationId": "3764500RVRA00008", "TownCode": 10005140, "type": "waterlevel"}, "geometry": {"type": "Point", "coordinates": [120.75751, 24.558176]}}, {"id": "187", "type": "Feature", "properties": {"AdminName": "\u6c34\u5229\u7f72\u6c34\u5229\u7f72", "IoWPhysicalQuantityId": "4e15cb09-c44a-471f-a279-e3ab39a0172e", "IoWStationId": "2f90cd11-cb61-42be-9288-626eb3b26c80", "Name": "\u5357\u6e2f\u6eaa\u6a4b", "StationId": "A130600WT134H226", "TownCode": 10005150, "type": "waterlevel"}, "geometry": {"type": "Point", "coordinates": [120.86785, 24.656075]}}, {"id": "188", "type": "Feature", "properties": {"AdminName": "\u7d93\u6fdf\u90e8\u6c34\u5229\u7f72", "IoWPhysicalQuantityId": "5e87b85d-bbb3-49d7-a446-4c9a97296bfb", "IoWStationId": "ab7fb3e1-565a-4281-821f-9553f409ec22", "Name": "\u4e2d\u6e2f\u6eaa\u8ac7\u6587\u6e56\u4e00\u865f\u5824\u9632 1K+305", "StationId": "A130612RVXX03", "TownCode": 10005150, "type": "waterlevel"}, "geometry": {"type": "Point", "coordinates": [120.8597, 24.6629]}}, {"id": "189", "type": "Feature", "properties": {"AdminName": "\u6c34\u5229\u7f72\u6c34\u5229\u7f72", "IoWPhysicalQuantityId": "f59d1f7c-f8e0-4d9f-80f6-d450dc1b640a", "IoWStationId": "7a7b8a55-d9fd-4f17-9af6-9a6d405bcab5", "Name": "\u5f18\u6587\u6a4b", "StationId": "A130600WT135H254", "TownCode": 10005170, "type": "waterlevel"}, "geometry": {"type": "Point", "coordinates": [120.88583, 24.466743]}}, {"id": "190", "type": "Feature", "properties": {"AdminName": "\u6c34\u5229\u7f72\u6c34\u5229\u7f72", "IoWPhysicalQuantityId": "1a1598ae-75da-4f44-91ca-76903b2c4896", "IoWStationId": "11d56acc-3c66-4eda-a6b8-65a004944a62", "Name": "\u9326\u5366\u5927\u6a4b", "StationId": "A130600WT135H247", "TownCode": 10005180, "type": "waterlevel"}, "geometry": {"type": "Point", "coordinates": [120.91371, 24.459919]}}, {"id": "191", "type": "Feature", "properties": {"AdminName": "\u6c34\u5229\u7f72\u6c34\u5229\u7f72", "IoWPhysicalQuantityId": "eb61a229-e57a-4343-b42b-58ba7244d8d2", "IoWStationId": "3e7d1ab4-f2bf-4016-a7c2-30c89e87f8d0", "Name": "\u8c61\u9f3b(3)", "StationId": "A130600WT140H269", "TownCode": 10005180, "type": "waterlevel"}, "geometry": {"type": "Point", "coordinates": [120.94694, 24.357769]}}, {"id": "192", "type": "Feature", "properties": {"AdminName": "\u7d93\u6fdf\u90e8\u6c34\u5229\u7f72\u6c34\u6587\u6280\u8853\u7d44", "IoWPhysicalQuantityId": "d861e299-f29b-4d89-bddf-b6c6f953f2b6", "IoWStationId": "df4985c9-c3c3-4c61-be36-d66e26f9b0ed", "Name": "\u8c61\u9f3b(3)-NB", "StationId": "A130600RV1400015", "TownCode": 10005180, "type": "waterlevel"}, "geometry": {"type": "Point", "coordinates": [120.94694, 24.357769]}}, {"id": "193", "type": "Feature", "properties": {"AdminName": "\u7d93\u6fdf\u90e8\u6c34\u5229\u7f72\u6c34\u6587\u6280\u8853\u7d44", "IoWPhysicalQuantityId": "efac27d5-faa9-447c-881a-ba16c06626f4", "IoWStationId": "f20e5aec-dfa0-411a-b38b-437fffc73614", "Name": "\u9326\u5366\u5927\u6a4b-NB", "StationId": "A130600RV1350021", "TownCode": 10005180, "type": "waterlevel"}, "geometry": {"type": "Point", "coordinates": [120.91371, 24.459917]}}, {"id": "194", "type": "Feature", "properties": {"AdminName": "\u5f70\u5316\u7e23\u653f\u5e9c\u6c34\u5229\u8cc7\u6e90\u8655", "IoWPhysicalQuantityId": "1b794371-d875-4100-ab4e-b0c55a28163b", "IoWStationId": "0a1cfc61-a91d-4c73-8fc5-34b8d4ae578a", "Name": "\u756a\u96c5\u6e9d\u6392\u6c34RW3", "StationId": "3764700RV0018817", "TownCode": 10007010, "type": "waterlevel"}, "geometry": {"type": "Point", "coordinates": [120.524315, 24.085709]}}, {"id": "195", "type": "Feature", "properties": {"AdminName": "\u6c34\u5229\u7f72\u6c34\u5229\u7f72", "IoWPhysicalQuantityId": "0a21dc09-5e08-4167-825b-c98c6502d967", "IoWStationId": "2f08592f-cb56-471a-8605-f2ed8f512441", "Name": "\u5927\u809a\u6a4b", "StationId": "A130600WT143H315", "TownCode": 10007010, "type": "waterlevel"}, "geometry": {"type": "Point", "coordinates": [120.5822, 24.10595]}}, {"id": "196", "type": "Feature", "properties": {"AdminName": "\u5f70\u5316\u7e23\u653f\u5e9c\u6c34\u5229\u8cc7\u6e90\u8655", "IoWPhysicalQuantityId": "1a955528-662d-41d6-926a-b1cf7073a934", "IoWStationId": "7309997e-cfc1-4081-a141-778bfd6e22c4", "Name": "\u6d0b\u4ed4\u539d\u6eaa\u6392\u6c34RW2", "StationId": "3764700RV0018823", "TownCode": 10007010, "type": "waterlevel"}, "geometry": {"type": "Point", "coordinates": [120.51121, 24.07067]}}, {"id": "197", "type": "Feature", "properties": {"AdminName": "\u7d93\u6fdf\u90e8\u6c34\u5229\u7f72\u6c34\u6587\u6280\u8853\u7d44", "IoWPhysicalQuantityId": "3ca5f12e-505f-451d-890e-5428d16f11ee", "IoWStationId": "774fc3ed-34e8-4364-a987-f6d2ebf69d04", "Name": "\u5927\u809a\u6a4b-NB", "StationId": "A130600RV1430025", "TownCode": 10007010, "type": "waterlevel"}, "geometry": {"type": "Point", "coordinates": [120.5822, 24.10595]}}, {"id": "198", "type": "Feature", "properties": {"AdminName": "\u5f70\u5316\u7e23\u653f\u5e9c\u6c34\u5229\u8cc7\u6e90\u8655", "IoWPhysicalQuantityId": "dd37752c-907c-47ea-87d7-7850451fa9e8", "IoWStationId": "b7ea4466-4117-4ad6-92ac-82e229ab35f6", "Name": "\u982d\u6c74\u57e4\u5236\u6c34\u9580", "StationId": "3764700FL95BC53D", "TownCode": 10007020, "type": "waterlevel"}, "geometry": {"type": "Point", "coordinates": [120.48842, 24.080973]}}, {"id": "199", "type": "Feature", "properties": {"AdminName": "\u5f70\u5316\u7e23\u653f\u5e9c\u6c34\u5229\u8cc7\u6e90\u8655", "IoWPhysicalQuantityId": "805abd31-d49f-4831-9d63-eddb4eefe055", "IoWStationId": "d05e9d6d-e07c-4477-83d4-32fe4f3c323f", "Name": "\u756a\u96c5\u6e9d\u6392\u6c34RW1", "StationId": "3764700RV0018810", "TownCode": 10007020, "type": "waterlevel"}, "geometry": {"type": "Point", "coordinates": [120.446304, 24.126404]}}, {"id": "200", "type": "Feature", "properties": {"AdminName": "\u5f70\u5316\u7e23\u653f\u5e9c\u6c34\u5229\u8cc7\u6e90\u8655", "IoWPhysicalQuantityId": "9045127a-0058-4fd3-bc64-ff9248f73789", "IoWStationId": "50e00902-9f27-4829-ac03-5c24baf8e20f", "Name": "\u756a\u96c5\u6e9d\u6392\u6c34RW2", "StationId": "3764700RV0018814", "TownCode": 10007030, "type": "waterlevel"}, "geometry": {"type": "Point", "coordinates": [120.50484, 24.103846]}}, {"id": "201", "type": "Feature", "properties": {"AdminName": "\u5f70\u5316\u7e23\u653f\u5e9c\u6c34\u5229\u8cc7\u6e90\u8655", "IoWPhysicalQuantityId": "1b0236c9-bc86-45fb-b0ef-15e2c514ba62", "IoWStationId": "134092c5-c753-43ad-898e-23f03c4be465", "Name": "\u54e1\u6797\u5927\u6392\u6c34RW3", "StationId": "3764700RV0018821", "TownCode": 10007060, "type": "waterlevel"}, "geometry": {"type": "Point", "coordinates": [120.442535, 24.038294]}}, {"id": "202", "type": "Feature", "properties": {"AdminName": "\u5f70\u5316\u7e23\u653f\u5e9c\u6c34\u5229\u8cc7\u6e90\u8655", "IoWPhysicalQuantityId": "b994fe2d-f229-4d0c-b3db-3610920122ac", "IoWStationId": "ee60b450-a169-41df-9840-cf76ea5e6c9c", "Name": "\u820a\u6fc1\u6c34\u6eaa\u6392\u6c34RW1", "StationId": "3764700RV0018811", "TownCode": 10007060, "type": "waterlevel"}, "geometry": {"type": "Point", "coordinates": [120.403336, 24.04257]}}, {"id": "203", "type": "Feature", "properties": {"AdminName": "\u5f70\u5316\u7e23\u653f\u5e9c\u6c34\u5229\u8cc7\u6e90\u8655", "IoWPhysicalQuantityId": "d8d0f0dc-4439-440a-89eb-389a9c1f1ce3", "IoWStationId": "068d7687-0a93-48b7-8698-6423884855a4", "Name": "\u6176\u8c50\u57e4\u5236\u6c34\u9580", "StationId": "3764700FLB131462", "TownCode": 10007070, "type": "waterlevel"}, "geometry": {"type": "Point", "coordinates": [120.507, 24.047806]}}, {"id": "204", "type": "Feature", "properties": {"AdminName": "\u5f70\u5316\u7e23\u653f\u5e9c\u6c34\u5229\u8cc7\u6e90\u8655", "IoWPhysicalQuantityId": "c2ff524d-1faa-4643-8a73-54b337545c59", "IoWStationId": "435d924f-ba4b-4d67-a71b-4adbaad3ba34", "Name": "\u54e1\u6797\u5927\u6392\u6c34RW1", "StationId": "3764700RV0018815", "TownCode": 10007070, "type": "waterlevel"}, "geometry": {"type": "Point", "coordinates": [120.494774, 24.003613]}}, {"id": "205", "type": "Feature", "properties": {"AdminName": "\u5f70\u5316\u7e23\u653f\u5e9c\u6c34\u5229\u8cc7\u6e90\u8655", "IoWPhysicalQuantityId": "9d494ea7-fba3-46a0-9a95-b2c370ec2e5a", "IoWStationId": "c4fc1636-9e9d-4eca-9b3d-b1ed7da5f494", "Name": "\u5289\u539d\u57e4\u5236\u6c34\u9580", "StationId": "3764700FL7D3B606", "TownCode": 10007080, "type": "waterlevel"}, "geometry": {"type": "Point", "coordinates": [120.534836, 24.019943]}}, {"id": "206", "type": "Feature", "properties": {"AdminName": "\u5f70\u5316\u7e23\u653f\u5e9c\u6c34\u5229\u8cc7\u6e90\u8655", "IoWPhysicalQuantityId": "bda7ecfa-fedb-4244-a442-7a3f05d8aee0", "IoWStationId": "ec49eda6-d68e-4616-84bf-87612077da36", "Name": "\u7b2c\u4e8c\u53e3\u5e84\u6a4b", "StationId": "3764700FL5E1C3C1", "TownCode": 10007080, "type": "waterlevel"}, "geometry": {"type": "Point", "coordinates": [120.5349, 24.039473]}}, {"id": "207", "type": "Feature", "properties": {"AdminName": "\u6c34\u5229\u7f72\u6c34\u5229\u7f72", "IoWPhysicalQuantityId": "c4971eaa-3c66-4456-aeeb-e025cdf800db", "IoWStationId": "82e32297-2b20-4f5a-9e15-29b5bb3559f4", "Name": "\u5229\u6c11\u6a4b", "StationId": "A130600WT143H319", "TownCode": 10007090, "type": "waterlevel"}, "geometry": {"type": "Point", "coordinates": [120.63736, 24.01373]}}, {"id": "208", "type": "Feature", "properties": {"AdminName": "\u7d93\u6fdf\u90e8\u6c34\u5229\u7f72\u6c34\u6587\u6280\u8853\u7d44", "IoWPhysicalQuantityId": "e62e4fcf-3bf5-4069-be29-9b7fd4fe14fe", "IoWStationId": "e7f85da8-2206-4f37-97a6-654c7f08b558", "Name": "\u5229\u6c11\u6a4b-NB", "StationId": "A130600RV1430029", "TownCode": 10007090, "type": "waterlevel"}, "geometry": {"type": "Point", "coordinates": [120.63736, 24.01373]}}, {"id": "209", "type": "Feature", "properties": {"AdminName": "\u5f70\u5316\u7e23\u653f\u5e9c\u6c34\u5229\u8cc7\u6e90\u8655", "IoWPhysicalQuantityId": "eb0767dd-887c-4050-985c-0500223aefc4", "IoWStationId": "612ac257-1c7d-4d1c-b0cc-508d3c28f858", "Name": "\u54e1\u6797\u5927\u6392\u6c34RW4", "StationId": "3764700RV0018826", "TownCode": 10007100, "type": "waterlevel"}, "geometry": {"type": "Point", "coordinates": [120.565025, 23.94501]}}, {"id": "210", "type": "Feature", "properties": {"AdminName": "\u5f70\u5316\u7e23\u653f\u5e9c\u6c34\u5229\u8cc7\u6e90\u8655", "IoWPhysicalQuantityId": "0233c78e-a139-4ad2-bdc7-5993b3010e28", "IoWStationId": "85cf147d-8fb8-47e2-be04-fb26de2cbf86", "Name": "\u820a\u6fc1\u6c34\u6eaa\u6392\u6c34RW2", "StationId": "3764700RV0018816", "TownCode": 10007110, "type": "waterlevel"}, "geometry": {"type": "Point", "coordinates": [120.47486, 23.922081]}}, {"id": "211", "type": "Feature", "properties": {"AdminName": "\u5f70\u5316\u7e23\u653f\u5e9c\u6c34\u5229\u8cc7\u6e90\u8655", "IoWPhysicalQuantityId": "0a8e88a3-b577-4fab-a362-a492a50d2764", "IoWStationId": "0a51faad-822d-4ec7-9ef7-63070de9bef4", "Name": "\u5357\u5e73\u6392\u6c34\u532f\u6d41\u8655", "StationId": "3764700FL4672690", "TownCode": 10007130, "type": "waterlevel"}, "geometry": {"type": "Point", "coordinates": [120.564, 23.978203]}}, {"id": "212", "type": "Feature", "properties": {"AdminName": "\u5f70\u5316\u7e23\u653f\u5e9c\u6c34\u5229\u8cc7\u6e90\u8655", "IoWPhysicalQuantityId": "9564194c-eef8-4c4e-99b4-75464d482d5c", "IoWStationId": "cf4878b4-74d3-4382-b033-78dfd7fc2604", "Name": "\u54e1\u6797\u5927\u6392\u6c34RW2", "StationId": "3764700RV0018819", "TownCode": 10007170, "type": "waterlevel"}, "geometry": {"type": "Point", "coordinates": [120.59305, 23.925434]}}, {"id": "213", "type": "Feature", "properties": {"AdminName": "\u7d93\u6fdf\u90e8\u6c34\u5229\u7f72\u6c34\u6587\u6280\u8853\u7d44", "IoWPhysicalQuantityId": "279c7058-f294-47d0-b2a3-960f8aaaefb9", "IoWStationId": "9d207291-b76c-48d5-9bd1-9a800cb6d587", "Name": "\u5f70\u96f2\u6a4b-NB", "StationId": "A130600RV1510057", "TownCode": 10007180, "type": "waterlevel"}, "geometry": {"type": "Point", "coordinates": [120.63625, 23.787607]}}, {"id": "214", "type": "Feature", "properties": {"AdminName": "\u7d93\u6fdf\u90e8\u6c34\u5229\u7f72\u6c34\u6587\u6280\u8853\u7d44", "IoWPhysicalQuantityId": "7139245c-9580-4fa3-9d00-8c4ff62993e7", "IoWStationId": "b93d5c34-5c36-4663-8a2d-607e984d39f3", "Name": "\u5f70\u96f2\u6a4b-L2-NB", "StationId": "A130600RV1510257", "TownCode": 10007180, "type": "waterlevel"}, "geometry": {"type": "Point", "coordinates": [120.63625, 23.787607]}}, {"id": "215", "type": "Feature", "properties": {"AdminName": "\u6c34\u5229\u7f72\u6c34\u5229\u7f72", "IoWPhysicalQuantityId": "e90bed1f-3d8b-4c19-ba3d-615a08a194e8", "IoWStationId": "e0bae26e-5056-41e3-ac99-08db7016df06", "Name": "\u5f70\u96f2\u6a4b", "StationId": "A130600WT151H400", "TownCode": 10007180, "type": "waterlevel"}, "geometry": {"type": "Point", "coordinates": [120.63625, 23.787607]}}, {"id": "216", "type": "Feature", "properties": {"AdminName": "\u5f70\u5316\u7e23\u653f\u5e9c\u6c34\u5229\u8cc7\u6e90\u8655", "IoWPhysicalQuantityId": "8d1f5b2a-f1db-4316-809e-31804f776de7", "IoWStationId": "0b82b7b3-adbf-4204-bf82-eb8d38d69564", "Name": "\u6587\u660e\u6a4b", "StationId": "3764700RV1110041", "TownCode": 10007200, "type": "waterlevel"}, "geometry": {"type": "Point", "coordinates": [120.4244, 23.9378]}}, {"id": "217", "type": "Feature", "properties": {"AdminName": "\u5f70\u5316\u7e23\u653f\u5e9c\u6c34\u5229\u8cc7\u6e90\u8655", "IoWPhysicalQuantityId": "b4545b71-55c1-4542-9412-a143067894b0", "IoWStationId": "576319ac-c4cb-4a22-a029-f14c557cc964", "Name": "\u842c\u8208\u6392\u6c34RW2", "StationId": "3764700RV0018824", "TownCode": 10007200, "type": "waterlevel"}, "geometry": {"type": "Point", "coordinates": [120.41819, 23.95319]}}, {"id": "218", "type": "Feature", "properties": {"AdminName": "\u5f70\u5316\u7e23\u653f\u5e9c\u6c34\u5229\u8cc7\u6e90\u8655", "IoWPhysicalQuantityId": "b87e24b3-d808-4457-b106-e72681042f6e", "IoWStationId": "9b477f80-2bd4-4b2c-b736-b9417f78c3c3", "Name": "\u7b2c\u4e09\u725b\u8eca\u6a4b", "StationId": "3764700FLC23FF62", "TownCode": 10007200, "type": "waterlevel"}, "geometry": {"type": "Point", "coordinates": [120.40275, 23.97892]}}, {"id": "219", "type": "Feature", "properties": {"AdminName": "\u5f70\u5316\u7e23\u653f\u5e9c\u6c34\u5229\u8cc7\u6e90\u8655", "IoWPhysicalQuantityId": "265c1060-cd3c-4bb2-bee5-a753fde2cc35", "IoWStationId": "9f8807a4-2f68-4a49-a9cc-571e3af105fb", "Name": "\u842c\u8208\u6392\u6c34RW3", "StationId": "3764700RV0018827", "TownCode": 10007200, "type": "waterlevel"}, "geometry": {"type": "Point", "coordinates": [120.44537, 23.909258]}}, {"id": "220", "type": "Feature", "properties": {"AdminName": "\u5f70\u5316\u7e23\u653f\u5e9c\u6c34\u5229\u8cc7\u6e90\u8655", "IoWPhysicalQuantityId": "0dbd73bd-6eb7-4217-8315-fd2d92a2b13a", "IoWStationId": "cd5f0748-e322-4899-be23-a90eede1ffba", "Name": "\u4e8c\u6797\u6eaa\u6392\u6c34RW1", "StationId": "3764700RV0018818", "TownCode": 10007200, "type": "waterlevel"}, "geometry": {"type": "Point", "coordinates": [120.374016, 23.887112]}}, {"id": "221", "type": "Feature", "properties": {"AdminName": "\u5f70\u5316\u7e23\u653f\u5e9c\u6c34\u5229\u8cc7\u6e90\u8655", "IoWPhysicalQuantityId": "a35fb936-b3e1-4b65-81dc-a86225edb9be", "IoWStationId": "d6a1f4b1-1e0f-4a82-bc01-7bdb1c18c0ea", "Name": "\u897f\u4fdd\u5733\u5236\u6c34\u9580", "StationId": "3764700FLB279102", "TownCode": 10007200, "type": "waterlevel"}, "geometry": {"type": "Point", "coordinates": [120.41853, 23.957111]}}, {"id": "222", "type": "Feature", "properties": {"AdminName": "\u5f70\u5316\u7e23\u653f\u5e9c\u6c34\u5229\u8cc7\u6e90\u8655", "IoWPhysicalQuantityId": "cf5112ec-2e0d-4efa-8c9e-a41d61d472e3", "IoWStationId": "5907bd7b-3798-4cc5-9529-4d0ac3898066", "Name": "\u4fdd\u5e84\u6a4b", "StationId": "3764700RV1110045", "TownCode": 10007220, "type": "waterlevel"}, "geometry": {"type": "Point", "coordinates": [120.4639, 23.8966]}}, {"id": "223", "type": "Feature", "properties": {"AdminName": "\u5f70\u5316\u7e23\u653f\u5e9c\u6c34\u5229\u8cc7\u6e90\u8655", "IoWPhysicalQuantityId": "1b12b788-fa21-4c12-b2fe-2268dbaf2197", "IoWStationId": "dc5e5c36-290a-42cb-9e21-7da68051e85f", "Name": "\u842c\u8208\u6392\u6c344", "StationId": "3764700RV1110046", "TownCode": 10007220, "type": "waterlevel"}, "geometry": {"type": "Point", "coordinates": [120.4657, 23.8908]}},